id,ident,type,name,latitude_deg,longitude_deg,elevation_ft,continent,country_name,iso_country,region_name,iso_region,local_region,municipality,scheduled_service,gps_code,iata_code,local_code,home_link,wikipedia_link,keywords,score,last_updated
4185,LFPG,large_airport,"Charles de Gaulle International Airport",49.012798,2.55,392,EU,France,FR,Île-de-France,FR-IDF,IDF,Paris,1,LFPG,CDG,,http://www.aeroportsdeparis.fr/,https://en.wikipedia.org/wiki/Charles_de_Gaulle_Airport,"PAR, Aéroport Roissy-Charles de Gaulle, Roissy Airport",1127475,2018-09-15T03:23:45+00:00
4189,LFPO,large_airport,"Paris-Orly Airport",48.72333,2.37944,291,EU,France,FR,Île-de-France,FR-IDF,IDF,Paris,1,LFPO,ORY,,,https://en.wikipedia.org/wiki/Orly_Airport,,1032775,2022-12-10T05:05:41+00:00
4156,LFMN,large_airport,"Nice-Côte d'Azur Airport",43.658401,7.21587,12,EU,France,FR,Provence-Alpes-Côte-d'Azur,FR-PAC,PAC,Nice,1,LFMN,NCE,,https://www.nice.aeroport.fr/en,https://en.wikipedia.org/wiki/C%C3%B4te_d'Azur_International_Airport,,51475,2022-11-08T16:07:59+00:00
4155,LFML,large_airport,"Marseille Provence Airport",43.439271922,5.22142410278,74,EU,France,FR,Provence-Alpes-Côte-d'Azur,FR-PAC,PAC,Marseille,1,LFML,MRS,,,https://en.wikipedia.org/wiki/Marseille_Provence_Airport,,1375,2011-12-17T07:33:34+00:00
4226,LFSB,large_airport,"EuroAirport Basel-Mulhouse-Freiburg Airport",47.59,7.529167,885,EU,France,FR,"Grand Est",FR-GES,GES,Bâle/Mulhouse,1,LFSB,BSL,,http://www.euroairport.com/,https://en.wikipedia.org/wiki/EuroAirport_Basel-Mulhouse-Freiburg,"MLH, EAP",1050,2022-06-10T02:31:48+00:00
4070,LFBO,large_airport,"Toulouse-Blagnac Airport",43.629101,1.36382,499,EU,France,FR,Occitanie,FR-OCC,OCC,Toulouse/Blagnac,1,LFBO,TLS,,http://www.toulouse.aeroport.fr/,https://en.wikipedia.org/wiki/Toulouse_Blagnac_International_Airport,,1675,2016-07-17T15:22:33+00:00
4137,LFLL,large_airport,"Lyon Saint-Exupéry Airport",45.725556,5.081111,821,EU,France,FR,Auvergne-Rhône-Alpes,FR-ARA,ARA,Lyon,1,LFLL,LYS,,https://www.lyonaeroports.com/,https://en.wikipedia.org/wiki/Saint-Exup%C3%A9ry_International_Airport,,1000,2018-02-11T14:28:31+00:00
4060,LFBD,large_airport,"Bordeaux-Mérignac Airport",44.8283,-0.715556,162,EU,France,FR,Nouvelle-Aquitaine,FR-NAQ,NAQ,Bordeaux/Mérignac,1,LFBD,BOD,,https://www.bordeaux.aeroport.fr/,https://en.wikipedia.org/wiki/Bordeaux%E2%80%93M%C3%A9rignac_Airport,,1275,2020-11-11T08:55:06+00:00
4169,LFOB,medium_airport,"Paris Beauvais Tillé Airport",49.454399,2.11278,359,EU,France,FR,Hauts-de-France,FR-HDF,HDF,Beauvais,1,LFOB,BVA,,https://www.aeroportparisbeauvais.com/,https://en.wikipedia.org/wiki/Paris_Beauvais_Till%C3%A9_Airport,,750,2021-07-18T13:59:47+00:00
4183,LFPB,medium_airport,"Paris-Le Bourget Airport",48.969398498535156,2.441390037536621,218,EU,France,FR,Île-de-France,FR-IDF,IDF,Paris,0,LFPB,LBG,,http://www.aeroportsdeparis.fr/,https://en.wikipedia.org/wiki/Le_Bourget_Airport,PAR,275,2008-06-13T14:30:04+00:00
4161,LFMT,medium_airport,"Montpellier-Méditerranée Airport",43.57619857788086,3.96301007270813,17,EU,France,FR,Occitanie,FR-OCC,OCC,Montpellier/Méditerranée,1,LFMT,MPL,,,https://en.wikipedia.org/wiki/Montpellier_-_M%C3%A9diterran%C3%A9e_Airport,,750,2008-06-13T14:30:04+00:00
4221,LFRS,medium_airport,"Nantes Atlantique Airport",47.153198242200006,-1.61073005199,90,EU,France,FR,Pays-de-la-Loire,FR-PDL,PDL,Nantes,1,LFRS,NTE,,,https://en.wikipedia.org/wiki/Nantes_Atlantique_Airport,,750,2010-08-31T21:50:59+00:00
4238,LFST,medium_airport,"Strasbourg Airport",48.538299560546875,7.628230094909668,505,EU,France,FR,"Grand Est",FR-GES,GES,Strasbourg,1,LFST,SXB,,http://www.strasbourg.aeroport.fr/E/index.php,https://en.wikipedia.org/wiki/Strasbourg_Airport,"BA 124",750,2008-06-13T14:30:04+00:00
4202,LFQQ,medium_airport,"Lille-Lesquin Airport",50.563332,3.086886,157,EU,France,FR,Hauts-de-France,FR-HDF,HDF,Lille/Lesquin,1,LFQQ,LIL,,,https://en.wikipedia.org/wiki/Lille_Lesquin_International_Airport,,750,2016-09-25T07:55:47+00:00
4055,LFAT,medium_airport,"Le Touquet-Côte d'Opale Airport",50.517399,1.62059,36,EU,France,FR,Hauts-de-France,FR-HDF,HDF,"Le Touquet-Paris-Plage",0,LFAT,LTQ,,https://www.aeroport-letouquet.com/,,,525,2023-05-18T09:58:35+00:00
4154,LFMK,medium_airport,"Carcassonne Airport",43.215999603271484,2.3063199520111084,433,EU,France,FR,Occitanie,FR-OCC,OCC,Carcassonne/Salvaza,1,LFMK,CCF,,,https://en.wikipedia.org/wiki/Carcassonne_Salvaza_Airport,,750,2008-06-13T14:30:04+00:00
4151,LFMD,medium_airport,"Cannes-Mandelieu Airport",43.542,6.95348,13,EU,France,FR,Provence-Alpes-Côte-d'Azur,FR-PAC,PAC,Cannes,1,LFMD,CEQ,,https://www.cannes.aeroport.fr/,https://en.wikipedia.org/wiki/Cannes_%E2%80%93_Mandelieu_Airport,,750,2021-04-27T15:15:43+00:00
4148,LFLY,medium_airport,"Lyon-Bron Airport",45.72719955444336,4.944270133972168,659,EU,France,FR,Auvergne-Rhône-Alpes,FR-ARA,ARA,Lyon/Bron,0,LFLY,LYN,,,,,475,2008-06-13T14:30:04+00:00
4123,LFKB,medium_airport,"Bastia-Poretta Airport",42.55270004272461,9.48373031616211,26,EU,France,FR,Corsica,FR-COR,COR,Bastia/Poretta,1,LFKB,BIA,,,https://en.wikipedia.org/wiki/Bastia_-_Poretta_Airport,,750,2008-09-11T04:28:46+00:00
4131,LFLB,medium_airport,"Chambéry-Savoie Airport",45.638099670410156,5.880229949951172,779,EU,France,FR,Auvergne-Rhône-Alpes,FR-ARA,ARA,Chambéry/Aix-les-Bains,1,LFLB,CMF,,,https://en.wikipedia.org/wiki/Chamb%C3%A9ry_Airport,,750,2008-06-13T14:30:04+00:00
4158,LFMP,medium_airport,"Perpignan-Rivesaltes (Llabanère) Airport",42.74039840698242,2.8706700801849365,144,EU,France,FR,Occitanie,FR-OCC,OCC,Perpignan/Rivesaltes,1,LFMP,PGF,,,https://en.wikipedia.org/wiki/Perpignan_-_Rivesaltes_Airport,,750,2008-06-13T14:30:04+00:00
4218,LFRN,medium_airport,"Rennes-Saint-Jacques Airport",48.0695,-1.73479,124,EU,France,FR,Brittany,FR-BRE,BRE,Rennes/Saint-Jacques,1,LFRN,RNS,,http://www.rennes.aeroport.fr/,https://en.wikipedia.org/wiki/Rennes_-_Saint-Jacques_Airport,,750,2020-07-18T10:53:06+00:00
4142,LFLS,medium_airport,"Grenoble-Isère Airport",45.3629,5.32937,1302,EU,France,FR,(unassigned),FR-U-A,U-A,Saint-Étienne-de-Saint-Geoirs,1,LFLS,GNB,,,https://en.wikipedia.org/wiki/Grenoble-Is%C3%A8re_Airport,,750,2020-04-04T17:17:37+00:00
4126,LFKJ,medium_airport,"Ajaccio-Napoléon Bonaparte Airport",41.92359924316406,8.8029203414917,18,EU,France,FR,Corsica,FR-COR,COR,"Ajaccio/Napoléon Bonaparte",1,LFKJ,AJA,,,https://en.wikipedia.org/wiki/Ajaccio_-_Campo_dell'Oro_Airport,,750,2008-10-06T13:37:21+00:00
4064,LFBH,medium_airport,"La Rochelle-Île de Ré Airport",46.17919921875,-1.1952799558639526,74,EU,France,FR,Nouvelle-Aquitaine,FR-NAQ,NAQ,"La Rochelle/Île de Ré",1,LFBH,LRH,,,https://en.wikipedia.org/wiki/La_Rochelle_-_%C3%8Ele_de_R%C3%A9_Airport,"Laleu Airport",750,2008-06-13T14:30:04+00:00
4141,LFLP,medium_airport,"Annecy-Haute-Savoie-Mont Blanc Airport",45.9308333,6.1063889,1521,EU,France,FR,Auvergne-Rhône-Alpes,FR-ARA,ARA,Annecy/Meythet,1,LFLP,NCY,,,https://en.wikipedia.org/wiki/Annecy_-_Haute-Savoie_-_Mont_Blanc_Airport,,750,2016-10-01T01:25:49+00:00
4132,LFLC,medium_airport,"Clermont-Ferrand Auvergne Airport",45.7867012024,3.1691699028,1090,EU,France,FR,Auvergne-Rhône-Alpes,FR-ARA,ARA,Clermont-Ferrand/Auvergne,1,LFLC,CFE,,,https://en.wikipedia.org/wiki/Clermont-Ferrand_Auvergne_Airport,,750,2015-05-06T19:12:46+00:00
4179,LFOT,medium_airport,"Tours-Val-de-Loire Airport",47.4322013855,0.727605998516,357,EU,France,FR,"Centre-Val de Loire",FR-CVL,CVL,"Tours/Val de Loire (Loire Valley)",1,LFOT,TUF,,http://www.tours.aeroport.fr/index_en.php,https://en.wikipedia.org/wiki/Tours_Loire_Valley_Airport,,750,2014-01-15T13:24:47+00:00
4211,LFRG,medium_airport,"Deauville-Saint-Gatien Airport",49.365299,0.154306,479,EU,France,FR,Normandy,FR-NOR,NOR,Deauville,1,LFRG,DOL,,,https://en.wikipedia.org/wiki/Deauville_-_Saint-Gatien_Airport,,500,2021-05-29T06:46:23+00:00
4163,LFMV,medium_airport,"Avignon-Caumont Airport",43.90729904174805,4.901830196380615,124,EU,France,FR,Provence-Alpes-Côte-d'Azur,FR-PAC,PAC,Avignon/Caumont,1,LFMV,AVN,,,https://en.wikipedia.org/wiki/Avignon_-_Caumont_Airport,,750,2008-06-13T14:30:04+00:00
4125,LFKF,medium_airport,"Figari Sud-Corse Airport",41.500599,9.09778,85,EU,France,FR,Corsica,FR-COR,COR,"Figari Sud-Corse",1,LFKF,FSC,,,https://en.wikipedia.org/wiki/Figari_Sud-Corse_Airport,,750,2020-09-13T09:13:41+00:00
4208,LFRD,medium_airport,"Dinard-Pleurtuit-Saint-Malo Airport",48.58769989013672,-2.0799601078033447,219,EU,France,FR,Brittany,FR-BRE,BRE,Dinard/Pleurtuit/Saint-Malo,1,LFRD,DNR,,,https://en.wikipedia.org/wiki/Dinard_-_Pleurtuit_-_Saint-Malo_Airport,,750,2008-07-31T23:06:46+00:00
4061,LFBE,medium_airport,"Bergerac-Roumanière Airport",44.82529830932617,0.5186110138893127,171,EU,France,FR,Nouvelle-Aquitaine,FR-NAQ,NAQ,Bergerac/Roumanière,1,LFBE,EGC,,,https://en.wikipedia.org/wiki/Bergerac-Roumani%C3%A8re_Airport,,750,2008-06-13T14:30:04+00:00
4124,LFKC,medium_airport,"Calvi-Sainte-Catherine Airport",42.5244444,8.7930556,209,EU,France,FR,Corsica,FR-COR,COR,Calvi/Sainte-Catherine,1,LFKC,CLY,,,https://en.wikipedia.org/wiki/Calvi_-_Sainte-Catherine_Airport,,750,2016-10-07T13:41:48+00:00
4067,LFBL,medium_airport,"Limoges Airport",45.86280059814453,1.1794400215148926,1300,EU,France,FR,Nouvelle-Aquitaine,FR-NAQ,NAQ,Limoges/Bellegarde,1,LFBL,LIG,,,https://en.wikipedia.org/wiki/Limoges_-_Bellegarde_Airport,,750,2008-06-13T14:30:04+00:00
4241,LFTH,medium_airport,"Toulon-Hyères Airport",43.0973014832,6.14602994919,7,EU,France,FR,Provence-Alpes-Côte-d'Azur,FR-PAC,PAC,"Toulon/Hyères/Le Palyvestre",1,LFTH,TLN,,http://toulon-hyeres.aeroport.fr/,https://en.wikipedia.org/wiki/Toulon-Hy%C3%A8res_Airport,,750,2014-02-18T23:07:50+00:00
4050,LFAC,medium_airport,"Calais-Dunkerque Airport",50.962101,1.95476,12,EU,France,FR,Hauts-de-France,FR-HDF,HDF,Marck,0,LFAC,CQF,,http://www.aeroport.capcalaisis.fr/,https://fr.wikipedia.org/wiki/A%C3%A9roport_de_Calais_-_Dunkerque,"Dunkirk, Grand Calais",325,2023-05-18T10:08:33+00:00
28927,LFLG,small_airport,"Aérodrome de Grenoble Le Versoud",45.2192,5.84972,722,EU,France,FR,Auvergne-Rhône-Alpes,FR-ARA,ARA,Grenoble,0,LFLG,,,,,,50,2021-04-30T13:21:10+00:00
4162,LFMU,medium_airport,"Béziers-Vias Airport",43.32350158691406,3.3538999557495117,56,EU,France,FR,Occitanie,FR-OCC,OCC,Béziers/Vias,1,LFMU,BZR,,,https://en.wikipedia.org/wiki/B%C3%A9ziers-Agde-Vias_Airport,,750,2008-06-13T14:30:04+00:00
4077,LFBZ,medium_airport,"Biarritz-Anglet-Bayonne Airport",43.4683333,-1.5311111,245,EU,France,FR,Nouvelle-Aquitaine,FR-NAQ,NAQ,Biarritz/Anglet/Bayonne,1,LFBZ,BIQ,,,https://en.wikipedia.org/wiki/Biarritz_-_Anglet_-_Bayonne_Airport,,750,2016-09-30T06:18:02+00:00
4065,LFBI,medium_airport,"Poitiers-Biard Airport",46.58769989013672,0.30666598677635193,423,EU,France,FR,Nouvelle-Aquitaine,FR-NAQ,NAQ,Poitiers/Biard,1,LFBI,PIS,,,https://en.wikipedia.org/wiki/Poitiers_-_Biard_Airport,,750,2008-06-13T14:30:04+00:00
4073,LFBT,medium_airport,"Tarbes-Lourdes-Pyrénées Airport",43.1786994934082,-0.006438999902456999,1260,EU,France,FR,Occitanie,FR-OCC,OCC,Tarbes/Lourdes/Pyrénées,1,LFBT,LDE,,,https://en.wikipedia.org/wiki/Tarbes-Lourdes-Pyr%C3%A9n%C3%A9es_Airport,,750,2008-06-13T14:30:04+00:00
4193,LFQB,medium_airport,"Troyes-Barberey Airport",48.322102,4.0167,388,EU,France,FR,"Grand Est",FR-GES,GES,Troyes/Barberey,0,LFQB,,,http://www.troyes.aeroport.fr/,https://en.wikipedia.org/wiki/Troyes_%E2%80%93_Barberey_Airport,QYR,375,2017-01-07T14:54:39+00:00
4206,LFRB,medium_airport,"Brest Bretagne Airport",48.447898864746094,-4.418540000915527,325,EU,France,FR,Brittany,FR-BRE,BRE,Brest/Guipavas,1,LFRB,BES,,,https://en.wikipedia.org/wiki/Brest_Bretagne_Airport,,750,2008-06-13T14:30:04+00:00
4242,LFTW,medium_airport,"Nîmes-Arles-Camargue Airport",43.75740051269531,4.4163498878479,309,EU,France,FR,Occitanie,FR-OCC,OCC,Nîmes/Garons,1,LFTW,FNI,,,https://en.wikipedia.org/wiki/N%C3%AEmes-Arles-Camargue_Airport,,750,2008-06-13T14:30:04+00:00
4071,LFBP,medium_airport,"Pau Pyrénées Airport",43.380001068115234,-0.41861099004745483,616,EU,France,FR,Nouvelle-Aquitaine,FR-NAQ,NAQ,"Pau/Pyrénées (Uzein)",1,LFBP,PUF,,,https://en.wikipedia.org/wiki/Pau_Pyr%C3%A9n%C3%A9es_Airport,,750,2008-06-13T14:30:04+00:00
4188,LFPN,medium_airport,"Toussus-le-Noble Airport",48.7519,2.10619,538,EU,France,FR,Île-de-France,FR-IDF,IDF,Toussus-le-Noble,0,LFPN,TNF,,,,,575,2022-12-07T12:07:56+00:00
4136,LFLI,medium_airport,"Annemasse Airfield",46.192001,6.26839,1620,EU,France,FR,Auvergne-Rhône-Alpes,FR-ARA,ARA,Annemasse,0,LFLI,,,http://www.caa.asso.fr/,,,250,2021-08-27T21:23:58+00:00
28488,LFLJ,small_airport,"Courchevel Altiport",45.397531,6.63498,6583,EU,France,FR,Auvergne-Rhône-Alpes,FR-ARA,ARA,Saint-Bon,0,LFLJ,CVF,,,https://en.wikipedia.org/wiki/Courchevel_Altiport,,50,2022-09-11T20:22:52+00:00
4215,LFRK,medium_airport,"Caen-Carpiquet Airport",49.173302,-0.45,256,EU,France,FR,Normandy,FR-NOR,NOR,Caen/Carpiquet,1,LFRK,CFR,,https://www.caen.aeroport.fr/,https://en.wikipedia.org/wiki/Caen_-_Carpiquet_Airport,,750,2021-11-19T16:45:23+00:00
4190,LFPT,medium_airport,"Aérodrome de Pontoise - Cormeilles en Vexin",49.096667,2.040833,325,EU,France,FR,Île-de-France,FR-IDF,IDF,Cormeilles-en-Vexin,0,LFPT,POX,,,https://en.wikipedia.org/wiki/Pontoise_%E2%80%93_Cormeilles_Aerodrome,,525,2020-04-29T20:41:54+00:00
4104,LFGA,medium_airport,"Colmar-Houssen Airport",48.109901428222656,7.359010219573975,628,EU,France,FR,"Grand Est",FR-GES,GES,Colmar/Houssen,0,LFGA,CMR,,,,,325,2008-06-13T14:30:04+00:00
4207,LFRC,medium_airport,"Cherbourg-Maupertus Airport",49.65010070800781,-1.4702800512313843,459,EU,France,FR,Normandy,FR-NOR,NOR,Cherbourg/Maupertus,1,LFRC,CER,,,https://en.wikipedia.org/wiki/Cherbourg_-_Maupertus_Airport,,750,2008-06-13T14:30:04+00:00
4152,LFMH,medium_airport,"Saint-Étienne-Bouthéon Airport",45.54059982299805,4.296390056610107,1325,EU,France,FR,Auvergne-Rhône-Alpes,FR-ARA,ARA,Saint-Étienne/Bouthéon,1,LFMH,EBU,,,https://en.wikipedia.org/wiki/Saint-%C3%89tienne_-_Bouth%C3%A9on_Airport,,750,2008-06-13T14:30:04+00:00
4176,LFOK,medium_airport,"Châlons-Vatry Airport",48.773333,4.206111,587,EU,France,FR,"Grand Est",FR-GES,GES,Vatry,1,LFOK,XCR,,,,,750,2021-05-29T06:44:03+00:00
4159,LFMQ,medium_airport,"Le Castellet Airport",43.252498626708984,5.785190105438232,1391,EU,France,FR,Provence-Alpes-Côte-d'Azur,FR-PAC,PAC,"Le Castellet",0,LFMQ,CTT,,,,,250,2008-06-13T14:30:04+00:00
4127,LFKO,small_airport,"Propriano Airport",41.66059875488281,8.889749526977539,13,EU,France,FR,Corsica,FR-COR,COR,Propriano,0,LFKO,PRP,,,,,50,2008-09-11T04:31:48+00:00
4197,LFQG,medium_airport,"Nevers-Fourchambault Airport",47.002601623535156,3.1133298873901367,602,EU,France,FR,Bourgogne-Franche-Comté,FR-BFC,BFC,Nevers/Fourchambault,0,LFQG,NVS,,,,,250,2008-06-13T14:30:04+00:00
28887,LFHM,small_airport,"Megève Altiport",45.823005,6.649406,4823,EU,France,FR,Auvergne-Rhône-Alpes,FR-ARA,ARA,Megève,0,LFHM,MVV,,,https://en.wikipedia.org/wiki/Meg%C3%A8ve_Altiport,,50,2022-09-11T19:35:44+00:00
28981,LFPZ,small_airport,"Saint-Cyr-l'École Airport",48.812459,2.067533,373,EU,France,FR,Île-de-France,FR-IDF,IDF,Saint-Cyr-l'École,0,LFPZ,,,,https://fr.wikipedia.org/wiki/A%C3%A9rodrome_de_Saint-Cyr-l%27%C3%89cole,,50,2022-12-07T12:06:48+00:00
4083,LFCL,small_airport,"Aérodrome de Toulouse-Lasbordes",43.587832,1.498507,460,EU,France,FR,Occitanie,FR-OCC,OCC,Toulouse/Lasbordes,0,LFCL,,,https://www.toulouse-metropole.fr/missions/deplacements/aerodrome-toulouse-lasbordes,https://en.wikipedia.org/wiki/Toulouse_-_Lasbordes_Airport,,50,2021-08-26T02:15:28+00:00
4177,LFOP,medium_airport,"Rouen Vallée de Seine Airport",49.386674,1.183519,512,EU,France,FR,Normandy,FR-NOR,NOR,Boos,1,LFOP,URO,,,https://en.wikipedia.org/wiki/Rouen_Airport,,750,2022-12-07T12:00:59+00:00
4220,LFRQ,medium_airport,"Quimper-Cornouaille Airport",47.974998474121094,-4.167789936065674,297,EU,France,FR,Brittany,FR-BRE,BRE,Quimper/Pluguffan,1,LFRQ,UIP,,,https://en.wikipedia.org/wiki/Quimper_-_Cornouaille_Airport,,750,2008-06-13T14:30:04+00:00
4086,LFCR,medium_airport,"Rodez-Marcillac Airport",44.407901763916016,2.4826700687408447,1910,EU,France,FR,Occitanie,FR-OCC,OCC,Rodez/Marcillac,1,LFCR,RDZ,,,https://en.wikipedia.org/wiki/Rodez-Marcillac_Airport,,750,2008-06-13T14:30:04+00:00
4228,LFSD,medium_airport,"Dijon-Bourgogne Airport",47.268902,5.09,726,EU,France,FR,Bourgogne-Franche-Comté,FR-BFC,BFC,Dijon/Longvic,1,LFSD,DIJ,,http://www.aeroport.dijon.cci.fr/,https://fr.wikipedia.org/wiki/A%C3%A9roport_de_Dijon-Bourgogne,"BA 102",500,2018-05-24T20:08:02+00:00
4130,LFLA,medium_airport,"Auxerre-Branches Airport",47.85020065307617,3.497109889984131,523,EU,France,FR,Bourgogne-Franche-Comté,FR-BFC,BFC,Auxerre/Branches,0,LFLA,AUF,,,,,325,2008-06-13T14:30:04+00:00
4144,LFLU,medium_airport,"Valence-Chabeuil Airport",44.9216,4.9699,525,EU,France,FR,Auvergne-Rhône-Alpes,FR-ARA,ARA,Valence/Chabeuil,0,LFLU,VAF,,http://www.valenceaeroport.fr,https://en.wikipedia.org/wiki/Valence-Chabeuil_Airport,,325,2016-11-20T21:58:40+00:00
4107,LFGJ,medium_airport,"Dole-Tavaux Airport",47.042686,5.435063,645,EU,France,FR,Bourgogne-Franche-Comté,FR-BFC,BFC,Dole/Tavaux,1,LFGJ,DLE,,https://www.aeroportdolejura.com/,https://en.wikipedia.org/wiki/Dole%E2%80%93Jura_Airport,Dole–Jura,575,2019-04-18T14:53:29+00:00
4225,LFRZ,medium_airport,"Saint-Nazaire-Montoir Airport",47.3105556,-2.1566667,13,EU,France,FR,Pays-de-la-Loire,FR-PDL,PDL,Saint-Nazaire/Montoir,0,LFRZ,SNR,,,,,575,2016-10-03T10:31:58+00:00
4222,LFRT,medium_airport,"Saint-Brieuc-Armor Airport",48.5378,-2.85444,453,EU,France,FR,Brittany,FR-BRE,BRE,Saint-Brieuc/Armor,0,LFRT,SBK,,,https://en.wikipedia.org/wiki/Saint-Brieuc_%E2%80%93_Armor_Airport,,300,2016-09-29T16:30:53+00:00
4166,LFNB,medium_airport,"Mende-Brenoux Airfield",44.502102,3.53282,3362,EU,France,FR,Occitanie,FR-OCC,OCC,Mende/Brénoux,0,LFNB,MEN,,,,,250,2019-02-18T06:11:51+00:00
28938,LFNA,small_airport,"Gap - Tallard Airfield",44.455002,6.03778,1986,EU,France,FR,Provence-Alpes-Côte-d'Azur,FR-PAC,PAC,,0,LFNA,GAT,,,,,50,2018-04-02T01:11:34+00:00
28929,LFLQ,small_airport,"Aérodrome de Montélimar - Ancône",44.583599,4.74056,240,EU,France,FR,Auvergne-Rhône-Alpes,FR-ARA,ARA,,0,LFLQ,,,,,,50,2020-05-14T13:07:38+00:00
4167,LFNH,small_airport,"Aérodrome de Carpentras",44.0298,5.07806,394,EU,France,FR,Provence-Alpes-Côte-d'Azur,FR-PAC,PAC,Carpentras,0,LFNH,,,,,Edgar-Sounille,50,2022-05-04T05:05:06+00:00
28862,LFGI,small_airport,"Dijon Darois Airfield",47.385278,4.946944,1586,EU,France,FR,Bourgogne-Franche-Comté,FR-BFC,BFC,Dijon,0,LFGI,,,,https://fr.m.wikipedia.org/wiki/Aérodrome_de_Dijon_-_Darois,,50,2023-01-04T14:48:23+00:00
28975,LFPL,small_airport,"Lognes Emerainville",48.821028,2.625967,359,EU,France,FR,Île-de-France,FR-IDF,IDF,Paris,0,LFPL,,,,,,50,2020-04-27T10:25:37+00:00
28881,LFHF,small_airport,"Ruoms Airport",44.445301,4.33389,361,EU,France,FR,Auvergne-Rhône-Alpes,FR-ARA,ARA,Ruoms,0,LFHF,,,,,,50,2020-05-01T08:30:45+00:00
28942,LFNF,small_airport,"Aérodrome de Vinon",43.737801,5.78417,902,EU,France,FR,Provence-Alpes-Côte-d'Azur,FR-PAC,PAC,Vinon-sur-Verdon,0,LFNF,,,,https://fr.wikipedia.org/wiki/Liste_des_a%C3%A9rodromes_en_France,,50,2017-03-12T14:53:16+00:00
4146,LFLW,medium_airport,"Aurillac Airport",44.89139938354492,2.4219400882720947,2096,EU,France,FR,Auvergne-Rhône-Alpes,FR-ARA,ARA,Aurillac,1,LFLW,AUR,,,https://en.wikipedia.org/wiki/Aurillac_Airport,,750,2008-06-13T14:30:04+00:00
4219,LFRO,medium_airport,"Lannion-Côte de Granit Airport",48.754398,-3.47166,290,EU,France,FR,Brittany,FR-BRE,BRE,Lannion,0,LFRO,LAI,,http://www.lannion.aeroport.fr,https://en.wikipedia.org/wiki/Lannion_%E2%80%93_C%C3%B4te_de_Granit_Airport,"Servel Airport",750,2021-05-29T07:12:21+00:00
4212,LFRH,medium_airport,"Lorient South Brittany (Bretagne Sud) Airport",47.76060104370117,-3.440000057220459,160,EU,France,FR,Brittany,FR-BRE,BRE,Lorient/Lann/Bihoué,1,LFRH,LRT,,,https://en.wikipedia.org/wiki/Lorient_South_Brittany_Airport,,750,2008-06-13T14:30:04+00:00
4120,LFJL,medium_airport,"Metz-Nancy-Lorraine Airport",48.9821014404,6.25131988525,870,EU,France,FR,"Grand Est",FR-GES,GES,"Metz / Nancy",1,LFJL,ETZ,,,https://en.wikipedia.org/wiki/Metz-Nancy-Lorraine_Airport,,750,2011-12-29T12:00:36+00:00
4147,LFLX,medium_airport,"Châteauroux-Déols ""Marcel Dassault"" Airport",46.860278,1.721111,529,EU,France,FR,"Centre-Val de Loire",FR-CVL,CVL,Châteauroux/Déols,0,LFLX,CHR,,,https://en.wikipedia.org/wiki/Ch%C3%A2teauroux-D%C3%A9ols_%22Marcel_Dassault%22_Airport,,475,2019-01-16T00:16:49+00:00
4234,LFSN,medium_airport,"Nancy-Essey Airport",48.692100524902344,6.230460166931152,751,EU,France,FR,"Grand Est",FR-GES,GES,Nancy/Essey,0,LFSN,ENC,,,,,475,2008-06-13T14:30:04+00:00
4217,LFRM,medium_airport,"Le Mans-Arnage Airport",47.94860076904297,0.20166699588298798,194,EU,France,FR,Pays-de-la-Loire,FR-PDL,PDL,"Le Mans/Arnage",0,LFRM,LME,,,,,275,2008-06-13T14:30:04+00:00
4138,LFLM,medium_airport,"Aérodrome de Mâcon-Charnay",46.295101,4.79577,728,EU,France,FR,Bourgogne-Franche-Comté,FR-BFC,BFC,Mâcon/Charnay,0,LFLM,,,,,,250,2020-05-14T13:18:30+00:00
4243,LFTZ,small_airport,"La Môle Airport",43.205399,6.482,59,EU,France,FR,Provence-Alpes-Côte-d'Azur,FR-PAC,PAC,"La Môle",1,LFTZ,LTT,,,https://en.wikipedia.org/wiki/La_M%C3%B4le_%E2%80%93_Saint-Tropez_Airport,,150,2018-09-15T16:21:52+00:00
28943,LFNG,small_airport,"Aérodrome de Montpellier - Candillargues",43.610298,4.07028,5,EU,France,FR,Occitanie,FR-OCC,OCC,,0,LFNG,,,,,,50,2020-05-03T05:33:03+00:00
28930,LFLR,small_airport,"Aérodrome de Saint-Rambert-d'Albon",45.2561,4.82583,509,EU,France,FR,Auvergne-Rhône-Alpes,FR-ARA,ARA,,0,LFLR,,,,https://fr.wikipedia.org/wiki/A%C3%A9rodrome_de_Saint-Rambert-d'Albon,,50,2017-03-12T14:54:33+00:00
28999,LFSJ,small_airport,"Sédan Douzy Airfield",49.659698,5.03778,512,EU,France,FR,"Grand Est",FR-GES,GES,,0,LFSJ,,,,,,50,2018-04-02T01:13:40+00:00
4149,LFMA,small_airport,"Aix - Les Milles Airport",43.5056,5.36778,367,EU,France,FR,Provence-Alpes-Côte-d'Azur,FR-PAC,PAC,Aix-en-Provence,0,LFMA,,,,,"Aérodrome d'Aix - Les Milles",50,2021-03-09T09:04:29+00:00
28916,LFKA,small_airport,"Albertville Airfield",45.627201,6.32972,1033,EU,France,FR,Auvergne-Rhône-Alpes,FR-ARA,ARA,Albertville,0,LFKA,,,,https://en.wikipedia.org/wiki/Albertville_Aerodrome,,50,2020-07-11T08:24:40+00:00
4113,LFHS,small_airport,"Bourg-Ceyzériat Airport",46.20090103149414,5.292029857635498,857,EU,France,FR,Auvergne-Rhône-Alpes,FR-ARA,ARA,Bourg/Ceyzériat,0,LFHS,,,,https://en.wikipedia.org/wiki/Bourg_-_Ceyz%C3%A9riat_Airport,,50,2008-06-13T14:30:04+00:00
4240,LFTF,small_airport,"Aérodrome de Cuers-Pierrefeu",43.247799,6.1267,266,EU,France,FR,Provence-Alpes-Côte-d'Azur,FR-PAC,PAC,Cuers/Pierrefeu,0,LFTF,,,,,,50,2020-05-02T10:48:07+00:00
28891,LFHU,small_airport,"Altiport L'Alpe d'Huez - Henri GIRAUD",45.087399,6.083604,6102,EU,France,FR,Auvergne-Rhône-Alpes,FR-ARA,ARA,"L'Alpe d'Huez",0,LFHU,AHZ,,,https://fr.wikipedia.org/wiki/Altiport_de_l'Alpe_d'Huez,,50,2022-09-11T19:50:54+00:00
28924,LFKX,small_airport,"Méribel Altiport",45.407505,6.577597,5636,EU,France,FR,Auvergne-Rhône-Alpes,FR-ARA,ARA,"Les Allues",0,LFKX,MFX,,,https://en.wikipedia.org/wiki/M%C3%A9ribel_Altiport,,50,2022-09-11T20:08:26+00:00
28830,LFEQ,small_airport,"Quiberon Airport",47.482200622558594,-3.0999999046325684,37,EU,France,FR,Brittany,FR-BRE,BRE,Pontivy,0,LFEQ,,,,,,50,2008-07-31T22:41:57+00:00
4237,LFSR,closed,"Reims-Champagne (BA 112) Air Base",49.310001,4.05,312,EU,France,FR,"Grand Est",FR-GES,GES,Reims/Champagne,0,,,,,,"LFSR, LFSR, RHE",975,2016-10-01T12:58:12+00:00
4058,LFBA,medium_airport,"Agen-La Garenne Airport",44.17470169067383,0.5905560255050659,204,EU,France,FR,Nouvelle-Aquitaine,FR-NAQ,NAQ,"Agen/La Garenne",1,LFBA,AGF,,,https://en.wikipedia.org/wiki/Agen_-_La_Garenne_Aerodrome,,750,2008-06-13T14:30:04+00:00
4173,LFOH,medium_airport,"Le Havre-Octeville Airport",49.534038,0.088406,313,EU,France,FR,Normandy,FR-NOR,NOR,"Le Havre",1,LFOH,LEH,,,https://en.wikipedia.org/wiki/Le_Havre_Octeville_Airport,,750,2022-12-07T11:58:04+00:00
29001,LFSL,medium_airport,Brive-Souillac,45.039722,1.485556,1016,EU,France,FR,Nouvelle-Aquitaine,FR-NAQ,NAQ,"Brive la Gaillarde",1,LFSL,BVE,,http://www.aeroport-brive-vallee-dordogne.fr,https://fr.wikipedia.org/wiki/Aéroport_de_Brive-Souillac,LFSL,500,2019-09-26T16:13:14+00:00
4204,LFQV,medium_airport,"Charleville-Mézières Ardennes-Etienne Riché Airfield",49.783901,4.64708,492,EU,France,FR,"Grand Est",FR-GES,GES,Charleville-Mézières,0,LFQV,,,,,,475,2021-08-27T21:18:16+00:00
4145,LFLV,medium_airport,"Vichy-Charmeil Airport",46.169700622558594,3.4037399291992188,817,EU,France,FR,Auvergne-Rhône-Alpes,FR-ARA,ARA,Vichy/Charmeil,0,LFLV,VHY,,,,,375,2008-06-13T14:30:04+00:00
4174,LFOI,medium_airport,Abbeville,50.143501,1.831891,220,EU,France,FR,Hauts-de-France,FR-HDF,HDF,Abbeville,0,LFOI,,,,https://fr.wikipedia.org/wiki/Aérodrome_d'Abbeville,"Aérodrome d'Abbeville",250,2020-05-24T05:23:49+00:00
4057,LFAY,medium_airport,"Aérodrome d'Amiens-Glisy",49.873004,2.387074,208,EU,France,FR,Hauts-de-France,FR-HDF,HDF,Amiens/Glisy,0,LFAY,,,,,,250,2020-05-29T12:55:00+00:00
4110,LFHO,medium_airport,"Aubenas-Ardèche Méridional Airport",44.544203,4.372192,923,EU,France,FR,Auvergne-Rhône-Alpes,FR-ARA,ARA,"Aubenas/Ardèche Méridional",0,LFHO,OBS,,,https://en.wikipedia.org/w/index.php?title=Aubenas_-_Ard%C3%A8che_M%C3%A9ridional_Aerodrome&redirect=no,,250,2018-05-24T17:38:35+00:00
4181,LFOV,medium_airport,"Laval-Entrammes Airport",48.03139877319336,-0.7429860234260559,330,EU,France,FR,Pays-de-la-Loire,FR-PDL,PDL,Laval/Entrammes,0,LFOV,LVA,,,,,250,2008-06-13T14:30:04+00:00
4140,LFLO,medium_airport,"Roanne-Renaison Airport",46.05830001831055,4.001389980316162,1106,EU,France,FR,Auvergne-Rhône-Alpes,FR-ARA,ARA,Roanne/Renaison,0,LFLO,RNE,,,,,250,2008-06-13T14:30:04+00:00
28928,LFLK,small_airport,"Aérodrome d'Oyonnax-Arbent",46.279202,5.6675,1755,EU,France,FR,Auvergne-Rhône-Alpes,FR-ARA,ARA,,0,LFLK,,,,,"Jean Coutty",50,2020-05-14T13:46:13+00:00
28939,LFNC,small_airport,"Mont-Dauphin - St-Crépin Airfield",44.701698,6.60028,2963,EU,France,FR,Provence-Alpes-Côte-d'Azur,FR-PAC,PAC,,0,LFNC,SCP,,http://www.stcrepin-aero.com/,,,50,2021-06-13T07:12:37+00:00
4054,LFAQ,small_airport,"Albert-Bray Airport",49.9715003967,2.69765996933,364,EU,France,FR,Hauts-de-France,FR-HDF,HDF,Albert/Bray,0,LFAQ,BYF,,,https://en.wikipedia.org/wiki/Albert_%E2%80%93_Picardie_Airport,,50,2012-02-22T01:29:01+00:00
28937,LFMX,small_airport,"Aérodrome de Château-Arnoux - Saint-Auban",44.060001,5.99139,1509,EU,France,FR,Provence-Alpes-Côte-d'Azur,FR-PAC,PAC,Avignon,0,LFMX,,,,,,50,2020-05-03T05:27:19+00:00
4200,LFQM,small_airport,"Aérodrome de Besançon-La Vèze",47.2066,6.083681,1271,EU,France,FR,Bourgogne-Franche-Comté,FR-BFC,BFC,"Besançon/La Vèze",0,LFQM,,,,https://en.wikipedia.org/wiki/Besan%C3%A7on_%E2%80%93_La_V%C3%A8ze_Aerodrome,QBQ,50,2020-04-30T06:43:32+00:00
4134,LFLE,small_airport,"Aérodrome de Chambéry Challes-les-Eaux",45.5611,5.97576,973,EU,France,FR,Auvergne-Rhône-Alpes,FR-ARA,ARA,Chambéry/Challes-les-Eaux,0,LFLE,,,,https://en.wikipedia.org/wiki/Chamb%C3%A9ry_Aerodrome,,50,2021-04-27T14:15:03+00:00
28819,LFEB,small_airport,"Dinan - Trélivan Airport",48.444400787353516,-2.1013898849487305,394,EU,France,FR,Brittany,FR-BRE,BRE,Dinan,0,LFEB,,,,http://fr.wikipedia.org/wiki/A%C3%A9roport_de_Dinan_-_Tr%C3%A9livan,,50,2009-06-06T12:19:44+00:00
4085,LFCQ,small_airport,"Aérodrome de Graulhet-Montdragon",43.771099,2.01083,581,EU,France,FR,Occitanie,FR-OCC,OCC,Graulhet/Montdragon,0,LFCQ,,,,,,50,2021-08-26T02:18:35+00:00
28964,LFOO,small_airport,"Les Sables-d'Olonne Talmont Airport",46.476898193359375,-1.7227799892425537,105,EU,France,FR,Pays-de-la-Loire,FR-PDL,PDL,"Les Sables-d'Olonne",0,LFOO,LSO,,,,Talmon-Saint-Hilaire,50,2008-06-13T14:30:04+00:00
28786,LFBS,small_airport,"Biscarrosse Parentis Airport",44.36940002441406,-1.130560040473938,98,EU,France,FR,Nouvelle-Aquitaine,FR-NAQ,NAQ,Muret,0,LFBS,,,,,,50,2008-07-31T22:40:32+00:00
4072,LFBR,small_airport,"Aérodrome de Muret - Lherm",43.448898,1.26333,622,EU,France,FR,Occitanie,FR-OCC,OCC,Muret/Lherm,0,LFBR,,,https://www.muret-lherm.aero,https://fr.wikipedia.org/wiki/A%C3%A9rodrome_de_Muret_-_Lherm,,50,2020-05-12T14:36:26+00:00
4182,LFOZ,small_airport,"Orléans – Saint-Denis-de-l'Hôtel Airport",47.8969,2.16333,396,EU,France,FR,"Centre-Val de Loire",FR-CVL,CVL,Orléans,0,LFOZ,ORE,,https://orleans.aeroport.fr/,https://en.wikipedia.org/wiki/Orl%C3%A9ans_%E2%80%93_Saint-Denis-de-l%27H%C3%B4tel_Airport,"Aéroport du Loiret",50,2020-09-04T18:22:16+00:00
4236,LFSP,small_airport,"Pontarlier Airfield",46.903999,6.32737,2683,EU,France,FR,Bourgogne-Franche-Comté,FR-BFC,BFC,Pontarlier,0,LFSP,,,,,,50,2020-04-27T09:38:52+00:00
4192,LFQA,small_airport,"Aérodrome de Reims Prunay",49.208698,4.15658,313,EU,France,FR,"Grand Est",FR-GES,GES,Reims/Prunay,0,LFQA,,,,,,50,2020-04-29T20:21:53+00:00
4114,LFHV,small_airport,"Villefranche-Tarare Airport",45.919983,4.634931,1076,EU,France,FR,Auvergne-Rhône-Alpes,FR-ARA,ARA,Villefranche/Tarare,0,LFHV,,,,https://en.wikipedia.org/wiki/Villefranche_-_Tarare_Airport,,50,2012-07-22T08:44:26+00:00
4082,LFCK,medium_airport,"Castres-Mazamet Airport",43.55630111694336,2.289180040359497,788,EU,France,FR,Occitanie,FR-OCC,OCC,Castres/Mazamet,1,LFCK,DCM,,,https://en.wikipedia.org/wiki/Castres-Mazamet_Airport,,750,2008-06-13T14:30:04+00:00
4230,LFSG,medium_airport,"Épinal-Mirecourt Airport",48.325001,6.06998,1084,EU,France,FR,"Grand Est",FR-GES,GES,Épinal/Mirecourt,0,LFSG,EPL,,http://www.epinal-mirecourt.aeroport.fr,https://en.wikipedia.org/wiki/%C3%89pinal_%E2%80%93_Mirecourt_Airport,,750,2021-05-29T07:18:14+00:00
4101,LFEY,medium_airport,"Île d'Yeu Airport",46.71860122680664,-2.3911099433898926,79,EU,France,FR,Pays-de-la-Loire,FR-PDL,PDL,"Île d'Yeu",1,LFEY,IDY,,,https://en.wikipedia.org/wiki/%C3%8Ele_d'Yeu_Aerodrome,,750,2008-06-13T14:30:04+00:00
4066,LFBK,medium_airport,"Montluçon-Guéret Airport",46.222599029541016,2.363960027694702,1497,EU,France,FR,Nouvelle-Aquitaine,FR-NAQ,NAQ,Montluçon/Guéret,0,LFBK,MCU,,,,,575,2008-06-13T14:30:04+00:00
4213,LFRI,medium_airport,"La Roche-sur-Yon Airport",46.701900482177734,-1.3786300420761108,299,EU,France,FR,Pays-de-la-Loire,FR-PDL,PDL,"La Roche-sur-Yon/Les Ajoncs",0,LFRI,EDM,,,,,375,2008-06-13T14:30:04+00:00
4203,LFQT,medium_airport,"Merville-Calonne Airport",50.61840057373047,2.642240047454834,61,EU,France,FR,Hauts-de-France,FR-HDF,HDF,Merville/Calonne,0,LFQT,HZB,,,,,325,2008-06-13T14:30:04+00:00
4160,LFMS,medium_airport,"Aérodrome d'Alès Cévennes",44.069698,4.14212,668,EU,France,FR,Occitanie,FR-OCC,OCC,Alès/Deaux,0,LFMS,,,,,,250,2020-05-03T05:23:59+00:00
4080,LFCH,medium_airport,"Aérodrome d'Arcachon-La Teste-de-Buch",44.596401,-1.11083,52,EU,France,FR,Nouvelle-Aquitaine,FR-NAQ,NAQ,"Arcachon/La Teste-de-Buch",0,LFCH,,,https://www.agglo-cobas.fr/mobilites/aerodrome/,https://en.wikipedia.org/wiki/Arcachon_-_La_Teste-de-Buch_Airport,,250,2020-09-14T14:40:21+00:00
4078,LFCC,medium_airport,"Aérodrome de Cahors-Lalbenque",44.351398,1.47528,912,EU,France,FR,Occitanie,FR-OCC,OCC,Cahors/Lalbenque,0,LFCC,ZAO,,,,,250,2020-09-12T08:31:26+00:00
4210,LFRF,medium_airport,"Granville Airport",48.88309860229492,-1.564170002937317,45,EU,France,FR,Normandy,FR-NOR,NOR,Granville,0,LFRF,GFR,,,,,250,2008-06-13T14:30:04+00:00
4199,LFQJ,medium_airport,"Maubeuge-Élesmes Airfield",50.310501,4.03312,452,EU,France,FR,Hauts-de-France,FR-HDF,HDF,Maubeuge/Élesmes,0,LFQJ,,,,,,250,2021-08-27T21:17:19+00:00
4178,LFOQ,small_airport,"Aérodrome de Blois-Le Breuil",47.678502,1.20884,398,EU,France,FR,"Centre-Val de Loire",FR-CVL,CVL,"Blois/Le Breuil",0,LFOQ,,,,https://fr.wikipedia.org/wiki/A%C3%A9rodrome_de_Blois_-_Le_Breuil,XBQ,150,2020-04-30T10:59:07+00:00
4171,LFOD,small_airport,"Aérodrome de Saumur - Saint-Florent",47.256802,-0.115142,269,EU,France,FR,Pays-de-la-Loire,FR-PDL,PDL,Saumur/Saint-Florent,0,LFOD,,,,,,150,2020-05-02T10:52:38+00:00
28953,LFNU,small_airport,"Uzès Airfield",44.084702,4.39528,886,EU,France,FR,Occitanie,FR-OCC,OCC,,0,LFNU,,,,,,50,2019-02-18T08:05:31+00:00
28879,LFHD,small_airport,"Aérodrome de Pierrelatte",44.398899,4.71806,197,EU,France,FR,Auvergne-Rhône-Alpes,FR-ARA,ARA,,0,LFHD,,,,,,50,2021-04-30T13:45:20+00:00
28908,LFJD,small_airport,"Corlier Altiport",46.040531,5.494537,2762,EU,France,FR,Auvergne-Rhône-Alpes,FR-ARA,ARA,,0,LFJD,,,,https://en.wikipedia.org/wiki/Corlier_Aerodrome,,50,2021-04-30T13:25:01+00:00
28857,LFGC,small_airport,"Strasbourg Neuhof Airfield",48.554401,7.77806,456,EU,France,FR,"Grand Est",FR-GES,GES,,0,LFGC,,,,,,50,2019-02-18T11:34:34+00:00
28772,LFAE,small_airport,"Eu Mers Le Treport Airfield",50.069199,1.42667,328,EU,France,FR,Hauts-de-France,FR-HDF,HDF,,0,LFAE,,,,,,50,2018-04-02T00:58:06+00:00
28801,LFDC,small_airport,"Aérodrome de Montendre-Marcillac",45.274399,-0.452222,148,EU,France,FR,Nouvelle-Aquitaine,FR-NAQ,NAQ,,0,LFDC,,,,,,50,2021-08-26T04:01:39+00:00
4129,LFKT,small_airport,"Aérodrome de Corte",42.2919,9.189,1132,EU,France,FR,Corsica,FR-COR,COR,Corte,0,LFKT,,,,,,50,2020-07-11T08:23:14+00:00
4231,LFSH,small_airport,"Haguenau Airfield",48.7943,7.81761,491,EU,France,FR,"Grand Est",FR-GES,GES,Haguenau,0,LFSH,,,,https://en.wikipedia.org/wiki/Haguenau_Airport,,50,2020-04-29T00:13:01+00:00
28935,LFMR,small_airport,"Barcelonnette - Saint-Pons Airfield",44.387198,6.609186,3714,EU,France,FR,Provence-Alpes-Côte-d'Azur,FR-PAC,PAC,"Le Castellet",0,LFMR,BAE,,,https://en.wikipedia.org/wiki/Barcelonnette_%E2%80%93_Saint-Pons_Airport,,50,2022-05-19T05:04:28+00:00
28974,LFPH,small_airport,"Aérodrome de Chelles-le-Pin",48.8978,2.6075,207,EU,France,FR,Île-de-France,FR-IDF,IDF,Paris,0,LFPH,,,,,,50,2020-05-01T12:37:30+00:00
28820,LFEC,small_airport,"Ouessant Airport",48.4632,-5.06358,142,EU,France,FR,Brittany,FR-BRE,BRE,Ushant,0,LFEC,OUI,,,https://en.wikipedia.org/wiki/Ushant_Airport,,50,2021-10-29T20:37:57+00:00
4111,LFHP,medium_airport,"Le Puy-Loudes Airfield",45.0807,3.76289,2731,EU,France,FR,Auvergne-Rhône-Alpes,FR-ARA,ARA,"Le Puy/Loudes",1,LFHP,LPY,,,https://en.wikipedia.org/wiki/Le_Puy_-_Loudes_Airport,,750,2022-05-22T13:33:05+00:00
4121,LFJR,medium_airport,"Angers-Loire Airport",47.560299,-0.312222,194,EU,France,FR,Pays-de-la-Loire,FR-PDL,PDL,TFFR,1,LFJR,ANE,,,https://en.wikipedia.org/wiki/Angers_–_Loire_Airport,,750,2022-04-30T11:44:58+00:00
4139,LFLN,medium_airport,"Saint-Yan Airport",46.412498474121094,4.0132598876953125,796,EU,France,FR,Bourgogne-Franche-Comté,FR-BFC,BFC,Saint-Yan,0,LFLN,SYT,,,,,575,2008-06-13T14:30:04+00:00
4175,LFOJ,medium_airport,"Orléans-Bricy (BA 123) Air Base",47.987801,1.76056,412,EU,France,FR,"Centre-Val de Loire",FR-CVL,CVL,Orléans/Bricy,0,LFOJ,,,,https://en.wikipedia.org/wiki/Orl%C3%A9ans_-_Bricy_Air_Base,,375,2020-09-05T04:44:15+00:00
4081,LFCI,medium_airport,"Albi-Le Séquestre Airport",43.91389846801758,2.1130599975585938,564,EU,France,FR,Occitanie,FR-OCC,OCC,"Albi/Le Séquestre",0,LFCI,LBI,,,,,325,2008-06-13T14:30:04+00:00
4076,LFBX,medium_airport,"Périgueux-Bassillac Airport",45.19810104370117,0.815555989742279,328,EU,France,FR,Nouvelle-Aquitaine,FR-NAQ,NAQ,Périgueux/Bassillac,0,LFBX,PGX,,,,,325,2008-06-13T14:30:04+00:00
4164,LFMY,medium_airport,"Salon-de-Provence (BA 701) Air Base",43.60639953613281,5.109250068664551,195,EU,France,FR,Provence-Alpes-Côte-d'Azur,FR-PAC,PAC,Salon,0,LFMY,,,,,,300,2008-06-13T14:30:04+00:00
4246,LFXA,medium_airport,"Ambérieu Air Base (BA 278)",45.987301,5.32844,823,EU,France,FR,Auvergne-Rhône-Alpes,FR-ARA,ARA,Ambérieu,0,LFXA,,,,https://en.wikipedia.org/wiki/Amb%C3%A9rieu-en-Bugey_Air_Base,,250,2016-09-03T05:15:28+00:00
4093,LFDH,medium_airport,"Auch-Lamothe Airport",43.687801,0.601667,411,EU,France,FR,Occitanie,FR-OCC,OCC,Auch/Lamothe,0,LFDH,,,"http://www.auchaeroport.fr/ (dead link as of 17-sep-2017)",https://fr.wikipedia.org/wiki/Aéroport_Auch_-_Gers,,250,2017-09-17T04:19:50+00:00
4135,LFLH,medium_airport,"Chalon-Champforgeuil Airfield",46.826099,4.81763,623,EU,France,FR,Bourgogne-Franche-Comté,FR-BFC,BFC,Chalon/Champforgueil,0,LFLH,,,,https://en.wikipedia.org/wiki/Chalon_-_Champforgeuil_Airfield,,250,2022-07-28T11:46:05+00:00
4209,LFRE,medium_airport,"La Baule-Escoublac Airport",47.289398193359375,-2.3463900089263916,105,EU,France,FR,Pays-de-la-Loire,FR-PDL,PDL,"La Baule-Escoublac",0,LFRE,LBY,,,,,250,2008-06-13T14:30:04+00:00
4223,LFRU,medium_airport,"Morlaix-Ploujean Airport",48.6031990051,-3.81577992439,272,EU,France,FR,Brittany,FR-BRE,BRE,Morlaix/Ploujean,0,LFRU,MXN,,,https://en.wikipedia.org/wiki/Morlaix_%E2%80%93_Ploujean_Airport,,250,2012-11-22T14:36:10+00:00
4069,LFBN,medium_airport,"Niort-Souché Airport",46.313477,-0.394529,203,EU,France,FR,Nouvelle-Aquitaine,FR-NAQ,NAQ,Niort/Souché,0,LFBN,NIT,,,,,250,2016-09-30T06:21:51+00:00
4109,LFGW,medium_airport,"Verdun-Le Rozelier Airfield",49.122398,5.46905,1230,EU,France,FR,"Grand Est",FR-GES,GES,Sommedieue,0,LFGW,,,,,Verdun,250,2022-10-28T18:02:56+00:00
4224,LFRV,medium_airport,"Vannes-Meucon Airport",47.72330093383789,-2.718559980392456,446,EU,France,FR,Brittany,FR-BRE,BRE,Vannes/Meucon,0,LFRV,VNE,,,,,250,2008-06-13T14:30:04+00:00
4106,LFGF,small_airport,"Beaune-Challanges Airport",47.005901,4.89342,656,EU,France,FR,Bourgogne-Franche-Comté,FR-BFC,BFC,Beaune/Challanges,0,LFGF,,,,,,150,2019-04-18T09:44:25+00:00
28880,LFHE,small_airport,"Aérodrome de Romans - Saint-Paul",45.066101,5.10333,594,EU,France,FR,Auvergne-Rhône-Alpes,FR-ARA,ARA,,0,LFHE,,,,,,50,2021-04-30T14:34:21+00:00
28884,LFHI,small_airport,"Morestel Airport",45.687801,5.45361,804,EU,France,FR,Auvergne-Rhône-Alpes,FR-ARA,ARA,,0,LFHI,,,,,,50,2020-04-04T17:26:50+00:00
28909,LFJE,small_airport,"Altiport de La Motte Chalancon",44.4958,5.40285,2887,EU,France,FR,Auvergne-Rhône-Alpes,FR-ARA,ARA,,0,,,LF2625,,,,50,2023-03-22T03:57:38+00:00
28910,LFJF,small_airport,"Aérodrome d'Aubenasson",44.6945,5.15111,810,EU,France,FR,Auvergne-Rhône-Alpes,FR-ARA,ARA,,0,LFJF,,,,,,50,2021-04-30T13:22:28+00:00
28876,LFGZ,small_airport,"Aérodrome de Nuits-Saint-Georges",47.143101,4.96917,797,EU,France,FR,Bourgogne-Franche-Comté,FR-BFC,BFC,,0,LFGZ,,,,,,50,2021-05-01T09:36:15+00:00
28823,LFEI,small_airport,"Briare Chatillon Airport",47.614399,2.78194,539,EU,France,FR,"Centre-Val de Loire",FR-CVL,CVL,,0,LFEI,,,,,,50,2016-11-12T07:23:59+00:00
28998,LFSE,small_airport,"Épinal Dogneville Airfield",48.211899,6.44917,1040,EU,France,FR,"Grand Est",FR-GES,GES,,0,LFSE,,,,,,50,2020-04-26T14:34:31+00:00
28970,LFPA,small_airport,"Aérodrome de Persan-Beaumont",49.165798,2.31306,148,EU,France,FR,Île-de-France,FR-IDF,IDF,,0,LFPA,,,,,,50,2020-05-02T06:09:28+00:00
28972,LFPE,small_airport,"Aérodrome de Meaux-Esbly",48.927799,2.83528,217,EU,France,FR,Île-de-France,FR-IDF,IDF,,0,LFPE,,,,,,50,2020-05-02T06:13:00+00:00
28795,LFCO,small_airport,"Oloron Herrere Airfield",43.1647,-0.560278,984,EU,France,FR,Nouvelle-Aquitaine,FR-NAQ,NAQ,,0,LFCO,,,,,,50,2020-08-16T03:21:27+00:00
28796,LFCP,small_airport,"Pons Avy Airfield",45.57,-0.515,117,EU,France,FR,Nouvelle-Aquitaine,FR-NAQ,NAQ,,0,LFCP,,,,,,50,2020-08-16T03:25:07+00:00
28811,LFDS,small_airport,"Sarlat Domme Airfield",44.793301,1.24472,978,EU,France,FR,Nouvelle-Aquitaine,FR-NAQ,NAQ,,0,LFDS,,,,,,50,2016-11-11T04:31:40+00:00
29019,LFXR,closed,"Rochefort Soubise Airfield",45.930801,-0.995278,13,EU,France,FR,Nouvelle-Aquitaine,FR-NAQ,NAQ,,0,,,,,,"LFXR, LFXR",50,2018-04-02T00:51:07+00:00
28959,LFOF,small_airport,"Aérodrome d'Alençon - Valframbert",48.447498,0.109167,479,EU,France,FR,Normandy,FR-NOR,NOR,,0,LFOF,,,,,,50,2020-05-02T06:08:09+00:00
28971,LFPD,small_airport,"Aérodrome de Bernay-Saint-Martin",49.102798,0.566667,554,EU,France,FR,Normandy,FR-NOR,NOR,,0,LFPD,,,,,,50,2020-05-08T11:13:20+00:00
28901,LFIP,small_airport,"Altiport de Peyresourde Balestas",42.796723,0.436503,5190,EU,France,FR,Occitanie,FR-OCC,OCC,,0,LFIP,,,,https://fr.wikipedia.org/wiki/Altiport_de_Peyresourde-Balestas,,50,2022-09-11T21:12:10+00:00
28941,LFNE,small_airport,"Aérodrome d'Eyguières",43.658298,5.01361,246,EU,France,FR,Provence-Alpes-Côte-d'Azur,FR-PAC,PAC,,0,LFNE,,,,,,50,2020-05-03T05:30:24+00:00
28793,LFCJ,small_airport,"Aérodrome de Jonzac Neulles",45.4842,-0.421389,128,EU,France,FR,Nouvelle-Aquitaine,FR-NAQ,NAQ,Albi,0,LFCJ,,,,,,50,2021-08-26T02:08:23+00:00
28996,LFRW,small_airport,"Le Val St Père",48.661701,-1.40444,26,EU,France,FR,Normandy,FR-NOR,NOR,Avranches,0,LFRW,,,,,,50,2020-04-27T10:23:06+00:00
28818,LFEA,small_airport,"Aérodrome de Belle Île",47.325256,-3.201255,171,EU,France,FR,Brittany,FR-BRE,BRE,Bangor,0,LFEA,BIC,,,https://fr.wikipedia.org/wiki/Aérodrome_de_Belle-Île,"Palais-Belle-İle-en-Mer Aerodrome",50,2021-09-26T08:52:15+00:00
28888,LFHN,small_airport,"Aérodrome de Bellegarde - Vouvray",46.123336,5.804858,1624,EU,France,FR,Auvergne-Rhône-Alpes,FR-ARA,ARA,Bellegarde-sur-Valserine,0,LFHN,,,,https://fr.wikipedia.org/wiki/A%C3%A9rodrome_de_Bellegarde_-_Vouvray#Histoire,,50,2022-09-11T23:40:54+00:00
28966,LFOS,small_airport,"Aérodrome de Saint-Valery-Vittefleur",49.836102,0.655,272,EU,France,FR,Normandy,FR-NOR,NOR,Blois,0,LFOS,,,,,,50,2020-05-01T12:21:32+00:00
28797,LFCS,small_airport,"Aérodrome de Bordeaux-Léognan-Saucats",44.700298,-0.595556,190,EU,France,FR,Nouvelle-Aquitaine,FR-NAQ,NAQ,Bordeaux-Saucats,0,LFCS,,,,,,50,2021-09-24T09:55:01+00:00
28936,LFMW,small_airport,"Aérodrome de Castelnaudary-Villeneuve",43.312199,1.92111,551,EU,France,FR,Occitanie,FR-OCC,OCC,"Castelnaudary Villeneuve",0,LFMW,,,,,,50,2020-05-03T05:25:36+00:00
28965,LFOR,small_airport,"Aérodrome de Chartres-Métropole",48.4589,1.52389,509,EU,France,FR,"Centre-Val de Loire",FR-CVL,CVL,"Chartres / Champhol",0,LFOR,,,,https://en.wikipedia.org/wiki/Chartres_%E2%80%93_Champhol_Aerodrome,"Champhol, A-40",50,2020-05-02T06:16:12+00:00
28979,LFPX,small_airport,"Chavenay-Villepreux Airfield",48.842323,1.9805,426,EU,France,FR,Île-de-France,FR-IDF,IDF,Chavenay,0,LFPX,,,,,,50,2022-12-07T12:05:42+00:00
28770,LFAB,small_airport,"St Aubin Airport",49.88249969482422,1.085279941558838,344,EU,France,FR,Normandy,FR-NOR,NOR,Dieppe,0,LFAB,DPE,,,,,50,2008-07-31T22:40:04+00:00
28963,LFON,small_airport,"Aérodrome de Dreux - Vernouillet",48.706699,1.36278,443,EU,France,FR,"Centre-Val de Loire",FR-CVL,CVL,Dreux,0,LFON,,,,,,50,2020-04-30T09:30:51+00:00
29004,LFSW,small_airport,"Épernay Plivot Airfield",49.004461,4.085342,289,EU,France,FR,"Grand Est",FR-GES,GES,Épernay,0,LFSW,,,http://www.aeroclub-epernay.com/,https://fr.wikipedia.org/wiki/A%C3%A9rodrome_d%27%C3%89pernay_-_Plivot,,50,2019-10-24T09:35:16+00:00
28933,LFMF,small_airport,"Fayence Glider Field",43.6112,6.69715,741,EU,France,FR,Provence-Alpes-Côte-d'Azur,FR-PAC,PAC,Fayence,0,LFMF,,,,,Tourrettes,50,2020-07-11T07:47:22+00:00
28968,LFOX,small_airport,"Aérodrome d'Étampes-Mondésir",48.381901,2.07528,494,EU,France,FR,Île-de-France,FR-IDF,IDF,Guillerval,0,LFOX,,,,,,50,2020-04-30T08:19:12+00:00
30241,LFPI,heliport,"Paris Issy-les-Moulineaux Heliport",48.833302,2.27278,112,EU,France,FR,Île-de-France,FR-IDF,IDF,Issy-les-Moulineaux,0,LFPI,,,,,,50,2023-04-29T08:04:49+00:00
4108,LFGK,small_airport,"Joigny Airport",47.992199,3.39222,732,EU,France,FR,Bourgogne-Franche-Comté,FR-BFC,BFC,Joigny,0,LFGK,,,,,,50,2023-05-07T04:39:33+00:00
28976,LFPP,small_airport,"Le Plessis-Belleville Airfield",49.108837,2.736138,387,EU,France,FR,Hauts-de-France,FR-HDF,HDF,"Le Plessis-Belleville",0,LFPP,,,,https://fr.wikipedia.org/wiki/A%C3%A9rodrome_du_Plessis-Belleville,,50,2020-04-27T10:24:13+00:00
4165,LFMZ,small_airport,"Lézignan-Corbières Airfield",43.1758,2.73417,207,EU,France,FR,Occitanie,FR-OCC,OCC,Lézignan-Corbières,0,LFMZ,,,,,,50,2019-04-28T11:18:52+00:00
4194,LFQC,small_airport,"Lunéville-Croismare Airfield",48.5933,6.54346,790,EU,France,FR,"Grand Est",FR-GES,GES,Lunéville/Croismare,0,LFQC,,,,,,50,2020-04-27T13:48:16+00:00
28885,LFHJ,small_airport,"Aérodrome de Lyon - Corbas",45.654202,4.91361,650,EU,France,FR,Auvergne-Rhône-Alpes,FR-ARA,ARA,Lyon,0,LFHJ,,,,,,50,2021-05-01T09:57:07+00:00
4084,LFCM,small_airport,"Millau-Larzac Airfield",43.9893,3.183,2606,EU,France,FR,Occitanie,FR-OCC,OCC,Millau/Larzac,0,LFCM,,,,,,50,2019-04-28T11:14:35+00:00
4090,LFCZ,small_airport,"Aérodrome de Mimizan",44.145928,-1.16432,164,EU,France,FR,Nouvelle-Aquitaine,FR-NAQ,NAQ,Mimizan,0,LFCZ,,,,,,50,2021-09-24T10:05:46+00:00
4115,LFHY,small_airport,"Aérodrome de Moulins - Montbeugny",46.534599,3.42372,915,EU,France,FR,Auvergne-Rhône-Alpes,FR-ARA,ARA,Moulins/Montbeugny,0,LFHY,,,,https://en.wikipedia.org/wiki/Moulins_-_Montbeugny_Airport,,50,2021-04-30T13:27:31+00:00
43438,FR-0098,small_airport,Narbonne,43.194168,3.051667,10,EU,France,FR,Occitanie,FR-OCC,OCC,Narbonne,0,LFNN,,,,,,50,2017-05-02T11:55:14+00:00
28932,LFME,small_airport,"Nîmes Courbessac Airport",43.853901,4.41361,197,EU,France,FR,Occitanie,FR-OCC,OCC,Nîmes,0,LFME,,,,,,50,2018-09-18T11:49:59+00:00
2988,LF51,small_airport,"Aérodrome du Plan-de-Dieu - Orange",44.18,4.91889,305,EU,France,FR,Provence-Alpes-Côte-d'Azur,FR-PAC,PAC,Plan-de-Dieu,0,LFPR,,LF8451,http://www.aeroclubduplandedieu.fr,,,50,2023-02-10T04:03:53+00:00
28826,LFEL,small_airport,"Le Blanc Airport",46.62080001831055,1.087499976158142,377,EU,France,FR,"Centre-Val de Loire",FR-CVL,CVL,Pontivy,0,LFEL,,,,,,50,2008-07-31T22:41:47+00:00
43646,FR-0304,small_airport,"Altisurface de Saint-Roch Mayères",45.950001,6.586111,5118,EU,France,FR,Auvergne-Rhône-Alpes,FR-ARA,ARA,Sallanche,0,,,LF7430,,,,50,2020-05-04T15:49:30+00:00
4074,LFBU,medium_airport,"Angoulême-Brie-Champniers Airport",45.729198,0.221456,436,EU,France,FR,Nouvelle-Aquitaine,FR-NAQ,NAQ,Angoulême/Brie/Champniers,0,LFBU,ANG,,,https://en.wikipedia.org/wiki/Angoul%C3%AAme_-_Brie_-_Champniers_Airport,,750,2021-07-31T16:32:22+00:00
35155,FR-JCA,heliport,"Croisette Heliport",43.535999,7.03736,,EU,France,FR,Provence-Alpes-Côte-d'Azur,FR-PAC,PAC,Cannes,1,,,,,,"Palm Beach",625,2023-04-30T11:13:34+00:00
4191,LFPV,medium_airport,"Vélizy-Villacoublay Air Base",48.774406,2.203102,584,EU,France,FR,Île-de-France,FR-IDF,IDF,Vélizy-Villacoublay,0,LFPV,VIY,,,https://en.wikipedia.org/wiki/V%C3%A9lizy_%E2%80%93_Villacoublay_Air_Base,"BA 107",599,2022-12-07T12:10:21+00:00
4172,LFOE,medium_airport,"Évreux-Fauville (BA 105) Air Base",49.02870178222656,1.2198599576950073,464,EU,France,FR,Normandy,FR-NOR,NOR,Évreux/Fauville,0,LFOE,EVX,,,,,575,2008-06-13T14:30:04+00:00
4229,LFSF,closed,"Metz-Frescaty (BA 128) Air Base",49.071701,6.13167,629,EU,France,FR,"Grand Est",FR-GES,GES,Metz/Frescaty,0,,,,,,"LFSF, LFSF, MZM",575,2017-03-04T03:17:40+00:00
4059,LFBC,medium_airport,"Cazaux (BA 120) Air Base",44.53329849243164,-1.125,84,EU,France,FR,Nouvelle-Aquitaine,FR-NAQ,NAQ,"Cazaux (La Teste-de-Buch)",0,LFBC,,,,,,500,2008-06-13T14:30:04+00:00
4153,LFMI,medium_airport,"Istres Le Tubé Air Base",43.522701,4.92384,82,EU,France,FR,Provence-Alpes-Côte-d'Azur,FR-PAC,PAC,"Istres/Le Tubé",0,LFMI,,,,,"Istres Air Base, BA125",475,2020-05-14T12:58:08+00:00
4157,LFMO,medium_airport,"Orange-Caritat (BA 115) Air Base",44.140499,4.86672,197,EU,France,FR,Provence-Alpes-Côte-d'Azur,FR-PAC,PAC,Orange/Caritat,0,LFMO,,,,https://en.wikipedia.org/wiki/Orange-Caritat_Air_Base,,475,2021-08-27T21:16:12+00:00
4201,LFQP,medium_airport,"Phalsbourg-Bourscheid Air Base",48.7680556,7.205,1017,EU,France,FR,"Grand Est",FR-GES,GES,Phalsbourg/Bourscheid,0,LFQP,,,,,,450,2016-10-03T10:36:10+00:00
4214,LFRJ,medium_airport,"Landivisiau Air Base",48.53030014038086,-4.151639938354492,348,EU,France,FR,Brittany,FR-BRE,BRE,Landivisiau,0,LFRJ,LDV,,,,,375,2008-06-13T14:30:04+00:00
4097,LFDN,medium_airport,"Rochefort-Saint-Agnant (BA 721) Airport",45.88779830932617,-0.9830560088157654,60,EU,France,FR,Nouvelle-Aquitaine,FR-NAQ,NAQ,Rochefort/Saint-Agnant,0,LFDN,RCO,,,,,325,2008-06-13T14:30:04+00:00
4150,LFMC,medium_airport,"Le Luc-Le Cannet Airport",43.384701,6.38714,265,EU,France,FR,Provence-Alpes-Côte-d'Azur,FR-PAC,PAC,"Le Cannet-des-Maures",0,LFMC,,,,,,300,2021-04-27T15:17:52+00:00
4235,LFSO,medium_airport,"Nancy-Ochey (BA 133) Air Base",48.583099365234375,5.954999923706055,1106,EU,France,FR,"Grand Est",FR-GES,GES,Nancy/Ochey,0,LFSO,,,,,,300,2008-06-13T14:30:04+00:00
4062,LFBF,medium_airport,"Toulouse-Francazal (BA 101) Air Base",43.54560089111328,1.3674999475479126,535,EU,France,FR,Occitanie,FR-OCC,OCC,Toulouse/Francazal,0,LFBF,,,,,,300,2008-06-13T14:30:04+00:00
4133,LFLD,medium_airport,"Bourges Airport",47.058101654052734,2.3702800273895264,529,EU,France,FR,"Centre-Val de Loire",FR-CVL,CVL,Bourges,0,LFLD,BOU,,,,,250,2008-06-13T14:30:04+00:00
4170,LFOC,medium_airport,"Châteaudun (BA 279) Air Base",48.058102,1.37662,433,EU,France,FR,"Centre-Val de Loire",FR-CVL,CVL,Châteaudun,0,LFOC,,,,,,250,2016-11-15T06:18:58+00:00
4094,LFDI,medium_airport,"Libourne-Artigues-de-Lussac Airport",44.982498,-0.134722,157,EU,France,FR,Nouvelle-Aquitaine,FR-NAQ,NAQ,Libourne/Artigues-de-Lussac,0,LFDI,,,,,,250,2016-10-28T06:06:24+00:00
4051,LFAG,medium_airport,"Aérodrome de Péronne Saint-Quentin",49.8685,3.02958,295,EU,France,FR,Hauts-de-France,FR-HDF,HDF,Péronne/Saint-Quentin,0,LFAG,,,,,,250,2020-05-11T21:25:58+00:00
4089,LFCY,medium_airport,"Royan-Médis Airport",45.62810134887695,-0.9725000262260437,72,EU,France,FR,Nouvelle-Aquitaine,FR-NAQ,NAQ,Royan/Médis,0,LFCY,RYN,,,,,250,2008-06-13T14:30:04+00:00
4056,LFAV,medium_airport,"Valenciennes-Denain Airfield",50.325802,3.46126,165,EU,France,FR,Hauts-de-France,FR-HDF,HDF,Valenciennes/Denain,0,LFAV,,,,,,250,2021-08-27T20:58:25+00:00
4205,LFQW,medium_airport,"Aérodrome de Vesoul-Frotey",47.6376,6.20392,1249,EU,France,FR,Bourgogne-Franche-Comté,FR-BFC,BFC,Vesoul/Frotey,0,LFQW,,,,,,250,2020-04-30T06:26:26+00:00
4092,LFDB,small_airport,"Aérodrome Morin - Védrines",44.0257,1.37804,351,EU,France,FR,Occitanie,FR-OCC,OCC,Montauban,0,LFDB,,,,,,150,2020-12-18T01:24:28+00:00
28839,LFFD,small_airport,"St André De L'eure Airfield",48.898602,1.25056,489,EU,France,FR,Normandy,FR-NOR,NOR,,0,LFFD,,,,,,50,2019-02-18T03:18:34+00:00
28789,LFCB,small_airport,"Aérodrome de Bagnères de Luchon",42.799999,0.6,2028,EU,France,FR,Occitanie,FR-OCC,OCC,,0,LFCB,,,,,,50,2020-05-06T06:34:44+00:00
28940,LFND,closed,"Pont St Esprit Airfield",44.269402,4.65333,144,EU,France,FR,Occitanie,FR-OCC,OCC,,0,,,,,,"LFND, LFND",50,2016-11-14T11:58:14+00:00
28949,LFNQ,small_airport,"Mont Louis La Quillane Airfield",42.543598,2.12,5610,EU,France,FR,Occitanie,FR-OCC,OCC,,0,LFNQ,,,,,,50,2019-02-18T08:06:53+00:00
29007,LFTN,small_airport,"La Grand'combe Airfield",44.2444,4.01222,1647,EU,France,FR,Occitanie,FR-OCC,OCC,,0,LFTN,,,,,,50,2021-06-13T07:17:39+00:00
29027,LFYS,small_airport,"Ste Léocadie Airfield",42.447201,2.01083,4331,EU,France,FR,Occitanie,FR-OCC,OCC,,0,LFYS,,,,,,50,2018-04-02T00:36:52+00:00
333895,FR-0406,small_airport,"Vallon des Bergons",43.020745,-0.178995,3445,EU,France,FR,Occitanie,FR-OCC,OCC,,0,,,LF6536,https://basulm.ffplum.fr/PDF/LF6536.pdf,,bergons,50,2020-04-17T17:27:14+00:00
28954,LFNV,small_airport,"Valréas Visan Airfield",44.336899,4.90806,472,EU,France,FR,Provence-Alpes-Côte-d'Azur,FR-PAC,PAC,,0,LFNV,,,,,,50,2019-02-18T08:05:02+00:00
29008,LFTP,small_airport,"Puimoisson Airfield",43.86889,6.16278,2523,EU,France,FR,Provence-Alpes-Côte-d'Azur,FR-PAC,PAC,,0,LFTP,,,http://www.puivolavoile.com/?lang=en,,,50,2021-06-13T07:16:48+00:00
29009,LFTQ,small_airport,"Châteaubriant Pouancé Airfield",47.739562,-1.189519,322,EU,France,FR,Pays-de-la-Loire,FR-PDL,PDL,,0,LFTQ,,,,,,50,2016-11-15T12:07:36+00:00
28878,LFHC,small_airport,"Aérodrome de Pérouges - Meximieux",45.869701,5.18722,702,EU,France,FR,Auvergne-Rhône-Alpes,FR-ARA,ARA,,0,LFHC,,,,,,50,2021-04-30T13:48:01+00:00
28883,LFHH,small_airport,"Vienne Reventin Airport",45.464199,4.82944,719,EU,France,FR,Auvergne-Rhône-Alpes,FR-ARA,ARA,,0,LFHH,,,,,,50,2020-03-29T12:23:44+00:00
28894,LFHZ,closed,"Ancien aérodrome de Sallanches Mont-Blanc",45.953899,6.63917,1755,EU,France,FR,Auvergne-Rhône-Alpes,FR-ARA,ARA,,0,,,,,,"LFHZ, LFHZ",50,2021-04-27T14:26:22+00:00
28918,LFKE,small_airport,"Saint-Jean-en-Royans Airport",45.027802,5.31,866,EU,France,FR,Auvergne-Rhône-Alpes,FR-ARA,ARA,,0,LFKE,,,,,,50,2020-04-04T17:32:01+00:00
28923,LFKP,small_airport,"La Tour Du Pin Airfield",45.560001,5.38472,1050,EU,France,FR,Auvergne-Rhône-Alpes,FR-ARA,ARA,,0,LFKP,,,,,,50,2018-04-02T01:10:45+00:00
28925,LFKY,small_airport,"Belley - Peyrieu Airfield",45.695,5.69278,739,EU,France,FR,Auvergne-Rhône-Alpes,FR-ARA,ARA,,0,LFKY,,,,,,50,2020-08-15T04:02:34+00:00
28931,LFLZ,small_airport,"Aérodrome de Feurs - Chambéon",45.70622,4.19734,1096,EU,France,FR,Auvergne-Rhône-Alpes,FR-ARA,ARA,,0,LFLZ,,,,,,50,2020-05-08T12:28:37+00:00
43582,FR-0242,small_airport,"Saint Rémy de Maurienne",45.376718,6.27692,1399,EU,France,FR,Auvergne-Rhône-Alpes,FR-ARA,ARA,,0,LFKR,,,,,,50,2018-04-02T00:54:00+00:00
28854,LFFX,small_airport,"Tournus Cuisery Airfield",46.562801,4.97667,682,EU,France,FR,Bourgogne-Franche-Comté,FR-BFC,BFC,,0,LFFX,,,,,,50,2019-02-18T02:33:31+00:00
28863,LFGL,small_airport,"Lons Le Saulnier Courlaoux Airfield",46.676102,5.47111,761,EU,France,FR,Bourgogne-Franche-Comté,FR-BFC,BFC,,0,LFGL,,,,,,50,2016-11-14T05:01:42+00:00
28867,LFGP,small_airport,"St Florentin Cheu Airfield",47.98019,3.775583,351,EU,France,FR,Bourgogne-Franche-Comté,FR-BFC,BFC,,0,LFGP,,,,,,50,2016-11-14T05:24:31+00:00
28874,LFGX,small_airport,"Aérodrome de Champagnole - Crotenay",46.7644,5.82083,1745,EU,France,FR,Bourgogne-Franche-Comté,FR-BFC,BFC,,0,LFGX,,,,,,50,2021-04-30T13:43:55+00:00
28997,LFSA,small_airport,"Besançon–Thise Airfield",47.2747,6.08417,807,EU,France,FR,Bourgogne-Franche-Comté,FR-BFC,BFC,,0,LFSA,,,,http://fr.wikipedia.org/wiki/A%C3%A9rodrome_de_Besan%C3%A7on_-_Thise,,50,2020-04-27T09:38:10+00:00
28835,LFEX,small_airport,"Nancy Azelot Airfield",48.5928,6.24111,961,EU,France,FR,"Grand Est",FR-GES,GES,,0,LFEX,,,,,,50,2019-02-18T02:32:48+00:00
28836,LFEZ,small_airport,"Nancy Malzeville Glider Field",48.7244,6.20778,1253,EU,France,FR,"Grand Est",FR-GES,GES,,0,LFEZ,,,,,,50,2016-11-14T07:03:05+00:00
28871,LFGT,small_airport,"Sarrebourg Buhl Airfield",48.717087,7.074805,873,EU,France,FR,"Grand Est",FR-GES,GES,,0,LFGT,,,,,,50,2016-11-15T03:15:17+00:00
28872,LFGU,small_airport,"Sarreguemines Neunkirch Airfield",49.128101,7.10833,853,EU,France,FR,"Grand Est",FR-GES,GES,,0,LFGU,,,,,,50,2016-11-15T03:14:29+00:00
28873,LFGV,closed,"Thionville Yutz Airport",49.354698,6.20139,518,EU,France,FR,"Grand Est",FR-GES,GES,,0,,,,,,"LFGV, LFGV",50,2016-11-15T03:13:56+00:00
28990,LFQU,small_airport,"Sarre Union Airfield",48.951401,7.07778,837,EU,France,FR,"Grand Est",FR-GES,GES,,0,LFQU,,,,,,50,2020-04-29T00:15:51+00:00
29014,LFXG,closed,"Bitche Army Air Base",49.06007,7.45009,984,EU,France,FR,"Grand Est",FR-GES,GES,,0,,,,,,"LFXG, LFXG",50,2021-06-13T07:01:43+00:00
29017,LFXM,closed,"Mourmelon Air Base",49.111401,4.36694,387,EU,France,FR,"Grand Est",FR-GES,GES,,0,,,,,,"LFXM, LFXM",50,2018-08-04T09:22:37+00:00
28771,LFAD,small_airport,"Compiègne Margny Airfield",49.434399,2.80611,315,EU,France,FR,Hauts-de-France,FR-HDF,HDF,,0,LFAD,,,,,,50,2018-04-02T00:57:24+00:00
28842,LFFH,small_airport,"Château-Thierry - Belleau Airfield",49.0672,3.35694,728,EU,France,FR,Hauts-de-France,FR-HDF,HDF,,0,LFFH,,,,,,50,2019-02-18T05:46:46+00:00
28840,LFFE,small_airport,"Enghien Moisselles Airfield",49.046398,2.35306,335,EU,France,FR,Île-de-France,FR-IDF,IDF,,0,LFFE,,,,,,50,2019-02-18T05:43:53+00:00
29020,LFXU,small_airport,"Les Mureaux Airfield",48.998299,1.94278,89,EU,France,FR,Île-de-France,FR-IDF,IDF,,0,LFXU,,,,,,50,2021-06-13T07:02:06+00:00
28788,LFCA,small_airport,"Aérodrome de Châtellerault-Targé",46.781399,0.551944,207,EU,France,FR,Nouvelle-Aquitaine,FR-NAQ,NAQ,,0,LFCA,,,,,,50,2020-05-06T06:32:50+00:00
28802,LFDE,small_airport,"Aérodrome d'Égletons",45.421398,2.06889,1857,EU,France,FR,Nouvelle-Aquitaine,FR-NAQ,NAQ,,0,LFDE,,,,"http://wikipedia.fr/Aérodrome d'Égletons",,50,2021-08-26T04:05:22+00:00
28803,LFDF,small_airport,"Aérodrome de Sainte-Foy-la-Grande",44.8536,0.176667,282,EU,France,FR,Nouvelle-Aquitaine,FR-NAQ,NAQ,,0,LFDF,,,,,,50,2021-08-26T04:07:36+00:00
28808,LFDP,small_airport,"St Pierre d'Oléron Airfield",45.959202,-1.31611,20,EU,France,FR,Nouvelle-Aquitaine,FR-NAQ,NAQ,,0,LFDP,,,http://ac.oleron.free.fr,,,50,2017-03-05T14:53:49+00:00
28814,LFDV,small_airport,"Couhé Vérac Airfield",46.2728,0.190556,499,EU,France,FR,Nouvelle-Aquitaine,FR-NAQ,NAQ,,0,LFDV,,,,,,50,2016-11-11T04:29:07+00:00
28895,LFIB,small_airport,"Aérodrome de Belvès Saint-Pardoux",44.782501,0.958889,791,EU,France,FR,Nouvelle-Aquitaine,FR-NAQ,NAQ,,0,LFIB,,,,,,50,2021-04-27T14:29:02+00:00
28897,LFIH,small_airport,"Chalais Airfield",45.268101,0.016944,285,EU,France,FR,Nouvelle-Aquitaine,FR-NAQ,NAQ,,0,LFIH,,,,,,50,2021-06-13T07:08:26+00:00
28906,LFIY,small_airport,"St Jean d'Angély Airfield",45.964993,-0.523374,246,EU,France,FR,Nouvelle-Aquitaine,FR-NAQ,NAQ,,0,LFIY,,,,,,50,2021-06-13T07:11:01+00:00
28912,LFJI,small_airport,"Aérodrome de Marennes - Le Bournet",45.825001,-1.07667,16,EU,France,FR,Nouvelle-Aquitaine,FR-NAQ,NAQ,,0,LFJI,,,,,,50,2021-04-27T14:17:41+00:00
29012,LFXB,small_airport,"Saintes Thénac Airfield",45.7019,-0.636111,118,EU,France,FR,Nouvelle-Aquitaine,FR-NAQ,NAQ,,0,LFXB,,,,,,50,2021-06-13T07:01:21+00:00
4091,LFDA,small_airport,"Aire-sur-l'Adour Airport",43.70940017700195,-0.245278000831604,259,EU,France,FR,Nouvelle-Aquitaine,FR-NAQ,NAQ,Aire-sur-Adour,0,LFDA,,,,,,50,2008-06-13T14:30:04+00:00
4102,LFFI,small_airport,"Ancenis Airfield",47.4081,-1.1775,111,EU,France,FR,Pays-de-la-Loire,FR-PDL,PDL,Ancenis,0,LFFI,,,,,,50,2021-06-26T13:35:51+00:00
28790,LFCD,small_airport,"Aérodrome d'Andernos",44.755,-1.065,66,EU,France,FR,Nouvelle-Aquitaine,FR-NAQ,NAQ,Andernos-les-Bains,0,LFCD,,,,,,50,2020-05-29T13:41:14+00:00
28914,LFJS,small_airport,"Aérodrome de Soissons - Courmelles",49.345798,3.28417,509,EU,France,FR,Hauts-de-France,FR-HDF,HDF,Angers,0,LFJS,,,,,,50,2020-09-14T14:38:39+00:00
4196,LFQF,small_airport,"Autun-Bellevue Airfield",46.9673,4.26057,997,EU,France,FR,Bourgogne-Franche-Comté,FR-BFC,BFC,Autun/Bellevue,0,LFQF,,,,,,50,2020-04-29T10:21:43+00:00
43640,FR-0298,small_airport,"Altisurface de Morzine-Avoriaz",46.190277,6.7625,5709,EU,France,FR,Auvergne-Rhône-Alpes,FR-ARA,ARA,Avoriaz,0,,,LF7427,,,,50,2020-05-26T10:18:02+00:00
28921,LFKL,small_airport,"Lyon Brindas Airfield",45.7117,4.69778,1040,EU,France,FR,Auvergne-Rhône-Alpes,FR-ARA,ARA,Brindas,0,LFKL,,,,,,50,2020-08-15T03:49:33+00:00
43605,FR-0263,small_airport,"Col du Béal Altiport",45.680777,3.789052,4823,EU,France,FR,Auvergne-Rhône-Alpes,FR-ARA,ARA,Chalmazel,0,,,LF4221,,,,50,2022-03-18T02:38:09+00:00
28961,LFOL,small_airport,"Aérodrome de L'Aigle-Saint-Michel",48.759701,0.659167,787,EU,France,FR,Normandy,FR-NOR,NOR,Chalons,0,LFOL,,,,,,50,2020-04-30T07:40:03+00:00
43596,FR-0254,small_airport,"Cipieres Alpes Dazur ULM",43.779275,6.864824,3789,EU,France,FR,Provence-Alpes-Côte-d'Azur,FR-PAC,PAC,Cipieres,0,,,LF0652,,,,50,2020-04-09T15:24:19+00:00
333578,FR-0392,small_airport,"Col de Bacchus Airstrip",44.8531,5.168788,3200,EU,France,FR,Auvergne-Rhône-Alpes,FR-ARA,ARA,"Col de Bacchus",0,,,LF2623,,,,50,2020-03-13T23:14:11+00:00
28957,LFNY,small_airport,"Altisurface de Saint-Étienne-en-Dévoluy",44.6689,5.90611,6201,EU,France,FR,Provence-Alpes-Côte-d'Azur,FR-PAC,PAC,Dévoluy,0,,,LF0538,,,,50,2020-06-03T02:10:24+00:00
28984,LFQK,small_airport,"Châlons - Écury-sur-Coole Airfield",48.905107,4.352703,319,EU,France,FR,"Grand Est",FR-GES,GES,Écury-sur-Coole,0,LFQK,,,,,"Farman Clément Aeroclub",50,2022-10-28T18:36:29+00:00
28919,LFKG,small_airport,"Aérodrome de Ghisonaccia - Alzitone",42.053387,9.400241,177,EU,France,FR,Corsica,FR-COR,COR,"Figari/Sud Corse",0,LFKG,,,,,,50,2020-08-18T03:55:30+00:00
29011,LFTU,closed,"Fréjus Airport",43.4175,6.7357,33,EU,France,FR,Provence-Alpes-Côte-d'Azur,FR-PAC,PAC,Fréjus,0,,,,,https://en.wikipedia.org/wiki/Frejus_Airport,"FRJ, LFTU",50,2021-04-27T15:17:14+00:00
28804,LFDG,small_airport,"Aérodrome de Gaillac - Lisle-sur-Tarn",43.8839,1.87556,446,EU,France,FR,Occitanie,FR-OCC,OCC,Gaillac,0,LFDG,,,,,,50,2021-09-24T10:08:17+00:00
28775,LFAK,small_airport,"Dunkerque-Les Moëres Airfield",51.039559,2.549129,-3,EU,France,FR,Hauts-de-France,FR-HDF,HDF,Ghyvelde,0,LFAK,,,http://www.aeroclub-dunkerque.com/,https://en.wikipedia.org/wiki/Dunkerque_%E2%80%93_Les_Mo%C3%ABres_Airfield,"Dunkirk, Dunkerque Aeroclub",50,2022-09-20T10:36:34+00:00
4100,LFES,small_airport,"Guiscriff Scaer Airport",48.0525016784668,-3.664720058441162,574,EU,France,FR,Brittany,FR-BRE,BRE,Guiscriff,0,LFES,,,,,,50,2008-06-13T14:30:04+00:00
43636,FR-0294,small_airport,"Altisurface de l'Escoulin",44.825001,5.233333,2165,EU,France,FR,Auvergne-Rhône-Alpes,FR-ARA,ARA,L'Escoulin,0,,,LF2624,,,,50,2020-06-03T07:22:19+00:00
28776,LFAL,small_airport,"Aérodrome de La Flèche - Thorée-les-Pins",47.692778,0.001944,120,EU,France,FR,Pays-de-la-Loire,FR-PDL,PDL,"La Flèche",0,LFAL,,,http://www.aeroclublafleche.fr/,https://fr.wikipedia.org/wiki/Aérodrome_de_La_Flèche_-_Thorée-les-Pins,,50,2021-02-02T21:26:44+00:00
28782,LFAU,small_airport,"Aérodrome de Vauville",49.622775,-1.830688,456,EU,France,FR,Normandy,FR-NOR,NOR,"La Hague",0,LFAU,,,,,,50,2021-04-30T01:03:33+00:00
4096,LFDM,small_airport,"Marmande-Virazeil Airport",44.4989013671875,0.20051400363445282,105,EU,France,FR,Nouvelle-Aquitaine,FR-NAQ,NAQ,Marmande/Virazeil,0,LFDM,,,,,,50,2008-06-13T14:30:04+00:00
43637,FR-0295,small_airport,"Chateau de Montmeilleur",44.793611,5.761667,2789,EU,France,FR,Auvergne-Rhône-Alpes,FR-ARA,ARA,Mens,0,LFKK,,,,,Montmeilleur,50,2017-05-02T11:53:38+00:00
28784,LFAX,small_airport,"Aérodrome de Mortagne Au Perche",48.540298,0.533889,886,EU,France,FR,Normandy,FR-NOR,NOR,Mortagne,0,LFAX,,,,,,50,2020-05-12T14:58:21+00:00
4105,LFGB,small_airport,"Mulhouse-Habsheim Airfield",47.741299,7.43221,788,EU,France,FR,"Grand Est",FR-GES,GES,Mulhouse/Habsheim,0,LFGB,,,,,,50,2021-06-13T06:40:33+00:00
4052,LFAI,small_airport,"Aérodrome de Nangis Les Loges",48.596199,3.00679,428,EU,France,FR,Île-de-France,FR-IDF,IDF,"Nangis/Les Loges",0,LFAI,,,,,,50,2020-05-11T21:20:17+00:00
355191,FR-0499,small_airport,"Les Ailes d'Eure et Loir",48.59244,1.53759,480,EU,France,FR,"Centre-Val de Loire",FR-CVL,CVL,Néron,0,,,LF2834,,,,50,2022-07-12T23:41:59+00:00
28805,LFDK,small_airport,"Soulac Sur Mer Airport",45.494998931884766,-1.0822199583053589,7,EU,France,FR,Nouvelle-Aquitaine,FR-NAQ,NAQ,Pamiers,0,LFDK,,,,,,50,2008-07-31T22:41:08+00:00
28977,LFPQ,small_airport,"Aérodrome de Fontenay Trésigny",48.707199,2.90444,371,EU,France,FR,Île-de-France,FR-IDF,IDF,Paris,0,LFPQ,,,,,,50,2020-05-01T12:26:42+00:00
28785,LFBJ,small_airport,"Aérodrome de Saint-Junien",45.903301,0.92,902,EU,France,FR,Nouvelle-Aquitaine,FR-NAQ,NAQ,Poitiers,0,LFBJ,,,,,,50,2020-05-29T12:57:08+00:00
29003,LFSV,small_airport,"Pont St Vincent Airfield",48.601398,6.05778,1306,EU,France,FR,"Grand Est",FR-GES,GES,"Pont Saint-Vincent",0,LFSV,,,http://acam54.fr/,,,50,2020-04-29T10:24:05+00:00
4098,LFED,small_airport,"Pontivy Airport",48.05849838256836,-2.92182993888855,407,EU,France,FR,Brittany,FR-BRE,BRE,Pontivy,0,LFED,,,,,,50,2008-06-13T14:30:04+00:00
28828,LFEN,small_airport,"Tours Sorigny Airport",47.26750183105469,0.7011110186576843,299,EU,France,FR,"Centre-Val de Loire",FR-CVL,CVL,Pontivy,0,LFEN,,,,,,50,2008-07-31T22:41:51+00:00
28829,LFEP,small_airport,"Pouilly Maconge Airport",47.221401,4.56111,1411,EU,France,FR,Bourgogne-Franche-Comté,FR-BFC,BFC,Pouilly,0,LFEP,,,,,,50,2016-11-12T07:23:31+00:00
28952,LFNT,small_airport,"Aérodrome d'Avignon-Pujaut",43.996899,4.75556,148,EU,France,FR,Occitanie,FR-OCC,OCC,Pujaut,0,LFNT,,,,,,50,2020-05-02T10:49:48+00:00
28484,LFER,small_airport,"Redon Bains-sur-Oust Airport",47.69940185546875,-2.036669969558716,223,EU,France,FR,Brittany,FR-BRE,BRE,Redon,0,LFER,,,,,,50,2008-06-13T14:30:04+00:00
28898,LFIK,small_airport,"Aérodrome de Ribérac-Tourette",45.238667,0.264798,351,EU,France,FR,Nouvelle-Aquitaine,FR-NAQ,NAQ,Ribérac,0,LFIK,,,,,,50,2016-11-14T10:41:06+00:00
28816,LFDX,small_airport,"Fumel Montayral Airport",44.463600158691406,1.0077799558639526,692,EU,France,FR,Nouvelle-Aquitaine,FR-NAQ,NAQ,Rochefort,0,LFDX,,,,,,50,2008-07-31T22:41:28+00:00
28817,LFDY,small_airport,"Bordeaux Yvrac Airport",44.877201080322266,-0.47916701436042786,240,EU,France,FR,Nouvelle-Aquitaine,FR-NAQ,NAQ,Rochefort,0,LFDY,,,,,,50,2008-07-31T22:41:30+00:00
28986,LFQN,small_airport,"Saint Omer Wizernes Airfield",50.729444,2.235833,249,EU,France,FR,Hauts-de-France,FR-HDF,HDF,"Saint Omer",0,LFQN,,,https://www.aerodromes.fr/aeroport-de-saint-omer---wizernes-lfqn-a350.html,https://fr.wikipedia.org/wiki/A%C3%A9rodrome_de_Saint-Omer_-_Wizernes,,50,2023-05-18T10:02:19+00:00
43626,FR-0284,small_airport,"Altisurface d'Isola 2000",44.171665,7.163056,8202,EU,France,FR,Provence-Alpes-Côte-d'Azur,FR-PAC,PAC,"Saint Sauveur de Tinée",0,,,LF0621,,,,50,2020-05-01T05:26:37+00:00
43652,FR-0309,small_airport,"Altiport de Val Thorens",45.281944,6.573611,8022,EU,France,FR,Auvergne-Rhône-Alpes,FR-ARA,ARA,Saint--Martin-de-Belleville,0,,,LF7327,,,,50,2019-06-29T13:46:20+00:00
4112,LFHQ,small_airport,"Saint-Flour-Coltines Airport",45.07640075683594,2.99360990524292,3218,EU,France,FR,Auvergne-Rhône-Alpes,FR-ARA,ARA,Saint-Flour/Coltines,0,LFHQ,,,,,,50,2008-06-13T14:30:04+00:00
28992,LFQY,small_airport,"Saverne Steinbourg Airfield",48.753392,7.425402,630,EU,France,FR,"Grand Est",FR-GES,GES,Saverne,0,LFQY,,,http://aeroclub.saverne.pagesperso-orange.fr/,https://fr.wikipedia.org/wiki/A%C3%A9rodrome_de_Saverne-Steinbourg,,50,2019-10-24T09:36:48+00:00
28868,LFGQ,small_airport,"Semur En Auxois Airfield",47.481899,4.34417,1053,EU,France,FR,Bourgogne-Franche-Comté,FR-BFC,BFC,"Semur En Auxois",0,LFGQ,,,,,,50,2016-09-12T08:44:47+00:00
329110,FR-0374,small_airport,"Corbonod-Seyssel Private",45.9618,5.8178,1175,EU,France,FR,Auvergne-Rhône-Alpes,FR-ARA,ARA,Seyssel,0,,,LF0151,,,,50,2019-11-11T10:24:21+00:00
43644,FR-0302,small_airport,"Altisurface de Praz Sauge et Pré Vernay",45.189795,6.252379,5958,EU,France,FR,Auvergne-Rhône-Alpes,FR-ARA,ARA,"St Jean D'Arves",0,,,LF7331,,,LFTU,50,2021-04-03T12:34:58+00:00
28812,LFDT,small_airport,"Aérodrome de Tarbes Laloubère",43.216099,0.078611,1076,EU,France,FR,Occitanie,FR-OCC,OCC,Tarbes,0,LFDT,,,,,,50,2016-11-11T04:30:29+00:00
28831,LFET,small_airport,"Til Châtel Airfield",47.547501,5.21194,938,EU,France,FR,Bourgogne-Franche-Comté,FR-BFC,BFC,"Til Châtel",0,LFET,,,,,,50,2022-12-21T16:03:56+00:00
4088,LFCW,small_airport,"Villeneuve-sur-Lot Airport",44.39690017700195,0.7588890194892883,190,EU,France,FR,Nouvelle-Aquitaine,FR-NAQ,NAQ,Villeneuve-sur-Lot,0,LFCW,,,,,,50,2008-06-13T14:30:04+00:00
43408,FR-0068,heliport,"Centre Hospitalier Heliport",49.76250076293945,4.697500228881836,579,EU,France,FR,"Grand Est",FR-GES,GES,"Charleville Mezieres",0,,,,,,,0,2009-03-14T19:27:19+00:00
43597,FR-0255,closed,"Altisurface de Clamensane",44.313889,6.074444,2933,EU,France,FR,Provence-Alpes-Côte-d'Azur,FR-PAC,PAC,Clamensane,0,,,,,,"Trois Fontaines, LF0421",0,2020-05-29T10:40:51+00:00
43470,FR-0130,heliport,"Coquelles Eurotunnel Heliport",50.91805648803711,1.7949999570846558,31,EU,France,FR,Hauts-de-France,FR-HDF,HDF,Coquelles,0,,,,,,,0,2009-03-14T19:29:36+00:00
43573,FR-0233,heliport,"Hôtel Royal Heliport",46.39666748046875,6.595555782318115,1540,EU,France,FR,Auvergne-Rhône-Alpes,FR-ARA,ARA,Evian-les-Bains,0,,,,,,,0,2009-03-14T19:33:31+00:00
43574,FR-0234,heliport,"La Daille Heliport",45.45722198486328,6.967778205871582,5912,EU,France,FR,Auvergne-Rhône-Alpes,FR-ARA,ARA,"Val D'Isere",0,,,,,,,0,2009-03-14T19:33:33+00:00
4075,LFBV,closed,"Ancien Aérodrome de Brive-La Roche",45.150799,1.469202,379,EU,France,FR,Nouvelle-Aquitaine,FR-NAQ,NAQ,Brive-la-Gaillarde,0,,,,,https://en.wikipedia.org/wiki/Brive_-_La_Roche_Airport,"BVE, LFBV",1375,2020-05-29T13:34:01+00:00
4168,LFOA,medium_airport,"Avord (BA 702) Air Base",47.053299,2.6325,580,EU,France,FR,"Centre-Val de Loire",FR-CVL,CVL,Avord,0,LFOA,,,,https://en.wikipedia.org/wiki/Avord_Air_Base,,750,2021-08-01T09:59:29+00:00
4068,LFBM,medium_airport,"Mont-de-Marsan (BA 118) Air Base",43.911701,-0.5075,203,EU,France,FR,Nouvelle-Aquitaine,FR-NAQ,NAQ,Mont-de-Marsan,0,LFBM,,,,,,599,2016-10-29T05:13:42+00:00
4239,LFSX,medium_airport,"Luxeuil-Saint-Sauveur (BA 116) Air Base",47.7830556,6.36416667,913,EU,France,FR,Bourgogne-Franche-Comté,FR-BFC,BFC,Luxeuil/Saint-Sauveur,0,LFSX,,,,,,500,2016-10-03T10:20:03+00:00
4187,LFPM,medium_airport,"Melun-Villaroche Air Base",48.604698181152344,2.6711199283599854,302,EU,France,FR,Île-de-France,FR-IDF,IDF,Melun/Villaroche,0,LFPM,,,,,,500,2008-06-13T14:30:04+00:00
4198,LFQI,closed,"Cambrai-Épinoy (BA 103) Air Base",50.221802,3.15424,257,EU,France,FR,Hauts-de-France,FR-HDF,HDF,Cambrai/Épinoy,0,,,,,,"LFQI, LFQI",375,2016-11-15T05:31:28+00:00
4063,LFBG,medium_airport,"Cognac-Châteaubernard (BA 709) Air Base",45.65829849243164,-0.3174999952316284,102,EU,France,FR,Nouvelle-Aquitaine,FR-NAQ,NAQ,Cognac/Châteaubernard,0,LFBG,CNG,,,,,375,2008-06-13T14:30:04+00:00
4184,LFPC,medium_airport,"Creil Air Base",49.253501892089844,2.5191400051116943,291,EU,France,FR,Hauts-de-France,FR-HDF,HDF,Creil,0,LFPC,CSF,,,,"BA 110",375,2008-06-13T14:30:04+00:00
4227,LFSC,closed,"Colmar-Meyenheim Air Base",47.922000885,7.39967012405,693,EU,France,FR,"Grand Est",FR-GES,GES,Colmar/Meyenheim,0,,,,,,"BA 132, LFSC",300,2013-11-10T03:02:25+00:00
4232,LFSI,medium_airport,"Saint-Dizier – Robinson Air Base",48.636002,4.89942,458,EU,France,FR,"Grand Est",FR-GES,GES,Saint-Dizier,0,LFSI,,,,https://en.wikipedia.org/wiki/Saint-Dizier_%E2%80%93_Robinson_Air_Base,"BA 113",300,2022-10-30T11:39:15+00:00
29028,LFYT,closed,"Saint-Simon - Clastres Air Base",49.757542,3.21598,295,EU,France,FR,Hauts-de-France,FR-HDF,HDF,,0,,,,,https://en.wikipedia.org/wiki/Saint-Simon_%E2%80%93_Clastres_Air_Base,"LFYT, LFYT",250,2018-04-02T00:35:58+00:00
4180,LFOU,medium_airport,"Cholet Le Pontreau Airport",47.08209991455078,-0.8770639896392822,443,EU,France,FR,Pays-de-la-Loire,FR-PDL,PDL,"Cholet/Le Pontreau",0,LFOU,CET,,,,,250,2008-06-13T14:30:04+00:00
4216,LFRL,medium_airport,"Lanvéoc-Poulmic Air Base",48.281700134277344,-4.4450201988220215,287,EU,France,FR,Brittany,FR-BRE,BRE,Lanvéoc/Poulmic,0,LFRL,,,,,,250,2008-07-13T21:58:18+00:00
4233,LFSM,medium_airport,"Montbéliard-Courcelles Airfield",47.487,6.79054,1041,EU,France,FR,Bourgogne-Franche-Comté,FR-BFC,BFC,Montbéliard/Courcelles,0,LFSM,,,,,,250,2016-11-15T11:42:15+00:00
4195,LFQE,medium_airport,"Lieutenant Étienne Mantoux Air Base",49.226898,5.67222,770,EU,France,FR,"Grand Est",FR-GES,GES,Rouvres-en-Woëvre,0,LFQE,,,,,"Étain-Rouvres Air Base",250,2022-10-28T18:01:22+00:00
4079,LFCG,medium_airport,"Aérodrome de Saint-Girons - Antichan",43.007801,1.10315,1368,EU,France,FR,Occitanie,FR-OCC,OCC,Saint-Girons/Antichan,0,LFCG,,,,,,250,2020-05-29T13:35:34+00:00
4128,LFKS,medium_airport,"Solenzara (BA 126) Air Base",41.924400329589844,9.406000137329102,28,EU,France,FR,Corsica,FR-COR,COR,Solenzara,0,LFKS,SOZ,,,,,250,2008-09-11T04:31:15+00:00
28886,LFHL,small_airport,"Aérodrome de Langogne - Lespéron",44.706402,3.88833,3330,EU,France,FR,Auvergne-Rhône-Alpes,FR-ARA,ARA,,0,LFHL,,,,,,50,2021-04-30T13:46:27+00:00
28892,LFHW,small_airport,"Belleville Villié Morgon Airfield",46.142799,4.71472,705,EU,France,FR,Auvergne-Rhône-Alpes,FR-ARA,ARA,,0,LFHW,,,,,,50,2021-06-13T07:35:02+00:00
28893,LFHX,small_airport,"Lapalisse - Périgny Airfield",46.253899,3.58861,1040,EU,France,FR,Auvergne-Rhône-Alpes,FR-ARA,ARA,,0,LFHX,,,,http://fr.wikipedia.org/wiki/A%C3%A9rodrome_de_Lapalisse_-_P%C3%A9rigny,,50,2021-06-13T07:35:49+00:00
28917,LFKD,small_airport,"Sollières Sardières Airfield",45.256401,6.80139,4255,EU,France,FR,Auvergne-Rhône-Alpes,FR-ARA,ARA,,0,LFKD,,,,,,50,2020-08-18T06:35:54+00:00
28922,LFKM,small_airport,"St Galmier Airfield",45.607201,4.30583,1266,EU,France,FR,Auvergne-Rhône-Alpes,FR-ARA,ARA,,0,LFKM,,,,,,50,2018-03-31T02:27:32+00:00
315954,FR-0327,small_airport,"Crottet-Le Bief ULM",46.285127,4.88604,597,EU,France,FR,Auvergne-Rhône-Alpes,FR-ARA,ARA,,0,,,LF0152,,,,50,2016-10-21T04:25:52+00:00
315959,FR-0332,small_airport,"Club ULM Haut Doubs",47.177725,6.813583,,EU,France,FR,Auvergne-Rhône-Alpes,FR-ARA,ARA,,0,,,LF2553,,,,50,2016-10-22T17:26:06+00:00
315968,FR-0334,small_airport,"Verneuil en Bourbonnais",46.359444,3.268056,,EU,France,FR,Auvergne-Rhône-Alpes,FR-ARA,ARA,,0,,,LF0354,,,,50,2016-10-21T04:26:37+00:00
330836,FR-0384,small_airport,"Base ULM du Forez",45.638413,4.061288,,EU,France,FR,Auvergne-Rhône-Alpes,FR-ARA,ARA,,0,,,,,,,50,2019-03-23T08:50:53+00:00
342315,FR-0468,small_airport,"Altisurface du Glacier du Passon ""du haut""",45.98044,6.979303,9750,EU,France,FR,Auvergne-Rhône-Alpes,FR-ARA,ARA,,0,,,,,,,50,2021-03-24T05:28:16+00:00
28834,LFEW,small_airport,"Saulieu Liernais Airfield",47.239399,4.26583,1722,EU,France,FR,Bourgogne-Franche-Comté,FR-BFC,BFC,,0,LFEW,,,,,,50,2016-11-14T07:03:47+00:00
28858,LFGD,closed,"Arbois Airfield",46.919998,5.76,876,EU,France,FR,Bourgogne-Franche-Comté,FR-BFC,BFC,,0,,,,,,"LFGD, LFGD",50,2016-11-14T05:25:06+00:00
28859,LFGE,small_airport,"Avallon Airfield",47.50377,3.901034,781,EU,France,FR,Bourgogne-Franche-Comté,FR-BFC,BFC,,0,LFGE,,,,,,50,2021-11-03T15:07:50+00:00
28860,LFGG,small_airport,"Belfort Chaux Airfield",47.702202,6.8325,1368,EU,France,FR,Bourgogne-Franche-Comté,FR-BFC,BFC,,0,LFGG,,,,,,50,2021-06-13T07:22:56+00:00
28861,LFGH,small_airport,"Cosne Sur Loire Airfield",47.3606,2.91944,581,EU,France,FR,Bourgogne-Franche-Comté,FR-BFC,BFC,,0,LFGH,,,,,,50,2021-06-13T07:23:20+00:00
28864,LFGM,small_airport,"Montceau Les Mines Airfield",46.604198,4.33389,1030,EU,France,FR,Bourgogne-Franche-Comté,FR-BFC,BFC,,0,LFGM,,,,,,50,2016-11-14T05:02:16+00:00
28865,LFGN,small_airport,"Paray Le Monial Airfield",46.466381,4.133798,997,EU,France,FR,Bourgogne-Franche-Comté,FR-BFC,BFC,,0,LFGN,,,,,,50,2016-11-14T05:03:11+00:00
28866,LFGO,small_airport,"Pont Sur Yonne Airfield",48.289172,3.247912,236,EU,France,FR,Bourgogne-Franche-Comté,FR-BFC,BFC,,0,LFGO,,,,,,50,2016-11-14T05:03:59+00:00
28907,LFJC,small_airport,"Aérodrome de Clamecy",47.438301,3.50861,713,EU,France,FR,Bourgogne-Franche-Comté,FR-BFC,BFC,,0,LFJC,,,,,,50,2021-04-27T14:19:28+00:00
28913,LFJM,closed,"Chailley Airfield",48.080715,3.714237,,EU,France,FR,Bourgogne-Franche-Comté,FR-BFC,BFC,,0,,,,,,"LFJM, LFJM",50,2021-06-13T07:11:58+00:00
28926,LFKZ,small_airport,"Aérodrome de St Claude Pratz",46.388901,5.77222,2051,EU,France,FR,Bourgogne-Franche-Comté,FR-BFC,BFC,,0,,,LF3923,,,,50,2020-06-03T10:14:11+00:00
28983,LFQH,small_airport,"Châtillon Sur Seine Airfield",47.843924,4.580045,905,EU,France,FR,Bourgogne-Franche-Comté,FR-BFC,BFC,,0,LFQH,,,,,,50,2016-11-15T05:44:14+00:00
29015,LFXH,closed,"Le Valdahon Air Base",47.166698,6.35,2067,EU,France,FR,Bourgogne-Franche-Comté,FR-BFC,BFC,,0,,,,,,,50,2016-11-16T02:23:19+00:00
29024,LFYL,closed,"Lure Malbouhans Air Base",47.7047,6.54583,1040,EU,France,FR,Bourgogne-Franche-Comté,FR-BFC,BFC,,0,,,,,https://fr.wikipedia.org/wiki/A%C3%A9rodrome_de_Lure_-_Malbouhans,"LFYL, LFYL",50,2018-04-02T00:39:09+00:00
316142,FR-0335,small_airport,"Doucier ULM",46.663693,5.761492,1735,EU,France,FR,Bourgogne-Franche-Comté,FR-BFC,BFC,,0,,,LF3951,http://www.alize-ulm.com,,,50,2016-10-22T17:26:29+00:00
330785,FR-0381,small_airport,"Base ULM de Fontaine les Clerval",47.4208887,6.4593714,,EU,France,FR,Bourgogne-Franche-Comté,FR-BFC,BFC,,0,,,LF2556,,,,50,2019-03-18T09:04:52+00:00
330786,FR-0382,closed,"Base ULM du Petit Fay",48.247629,3.194275,607,EU,France,FR,Bourgogne-Franche-Comté,FR-BFC,BFC,,0,,,,,,"LF8926, LF8926",50,2022-04-15T04:32:56+00:00
339785,FR-0450,small_airport,"Base ULM La Collancelle",47.19121,3.644,985,EU,France,FR,Bourgogne-Franche-Comté,FR-BFC,BFC,,0,,,LF5852,,,,50,2021-01-18T05:22:08+00:00
30438,LFEO,closed,"St Malo St Serva Airfield",48.613602,-1.97361,151,EU,France,FR,Brittany,FR-BRE,BRE,,0,,,,,,"LFEO, LFEO",50,2016-11-12T07:38:56+00:00
315957,FR-0330,small_airport,"Base ULM de Kerfot",48.723882,-3.027055,,EU,France,FR,Brittany,FR-BRE,BRE,,0,,,LF2221,,,,50,2018-12-31T03:58:52+00:00
321209,FR-0347,small_airport,"Base ULM de Mellac",47.9115647,-3.5677212,,EU,France,FR,Brittany,FR-BRE,BRE,,0,,,,,,,50,2016-11-15T20:45:00+00:00
339763,FR-0446,small_airport,"Base ULM de Plouarzel",48.42257,-4.69713,400,EU,France,FR,Brittany,FR-BRE,BRE,,0,,,LF2921,,,,50,2021-01-17T16:47:23+00:00
339764,FR-0447,small_airport,"Base ULM de Ploballanec",47.81841,-4.24896,49,EU,France,FR,Brittany,FR-BRE,BRE,,0,,,LF2923,,,,50,2021-01-17T16:55:21+00:00
330835,FR-0383,small_airport,"Base ULM d'Aghione Casone",42.1018478,9.4156253,,EU,France,FR,Corsica,FR-COR,COR,,0,,,LF2023,,,,50,2019-03-23T08:46:00+00:00
28822,LFEG,small_airport,"Argenton Sur Creuse Airfield",46.596901,1.6025,663,EU,France,FR,"Centre-Val de Loire",FR-CVL,CVL,,0,LFEG,,,,,,50,2018-04-02T01:08:17+00:00
28824,LFEJ,small_airport,"Châteauroux Villers Airfield",46.8419,1.62111,541,EU,France,FR,"Centre-Val de Loire",FR-CVL,CVL,,0,LFEJ,,,,,,50,2018-04-02T01:08:48+00:00
28825,LFEK,small_airport,"Issoudun Le Fay Airfield",46.888599,2.04139,531,EU,France,FR,"Centre-Val de Loire",FR-CVL,CVL,,0,LFEK,,,,,,50,2018-04-02T01:09:28+00:00
28845,LFFL,small_airport,"Bailleau Armenonville Airfield",48.5158,1.64,509,EU,France,FR,"Centre-Val de Loire",FR-CVL,CVL,,0,LFFL,,,,,,50,2019-02-18T03:16:30+00:00
28846,LFFM,closed,"Lamotte Beuvron Airfield",47.6567,1.98917,413,EU,France,FR,"Centre-Val de Loire",FR-CVL,CVL,,0,,,,,,"LFFM, LFFM",50,2019-02-18T03:14:47+00:00
28847,LFFP,small_airport,"Pithiviers Airfield",48.1572,2.1925,384,EU,France,FR,"Centre-Val de Loire",FR-CVL,CVL,,0,LFFP,,,,,,50,2019-02-18T03:15:21+00:00
28851,LFFU,small_airport,"Châteauneuf Sur Cher Airfield",46.871101,2.37694,551,EU,France,FR,"Centre-Val de Loire",FR-CVL,CVL,,0,LFFU,,,,,,50,2019-02-18T05:48:11+00:00
28852,LFFV,small_airport,"Vierzon Méreau Airfield",47.194698,2.06667,430,EU,France,FR,"Centre-Val de Loire",FR-CVL,CVL,,0,LFFV,,,,http://fr.wikipedia.org/wiki/A%C3%A9rodrome_de_Vierzon_-_M%C3%A9reau,,50,2019-02-18T05:48:38+00:00
29026,LFYR,small_airport,"Romorantin Pruniers Airfield",47.317543,1.691036,289,EU,France,FR,"Centre-Val de Loire",FR-CVL,CVL,,0,LFYR,,,,,,50,2018-04-02T00:38:16+00:00
339744,FR-0438,small_airport,"Champrond le Petit Bois Landry base ULM",48.39361,1.05753,853,EU,France,FR,"Centre-Val de Loire",FR-CVL,CVL,,0,,,LF2822,,,,50,2021-01-17T10:35:29+00:00
339751,FR-0443,small_airport,"Base ULM de Beaulieu-sur-Loire",47.55844,2.8242,443,EU,France,FR,"Centre-Val de Loire",FR-CVL,CVL,,0,,,LF4554,http://basedebeaulieu.com/index.php/fr/,,,50,2021-01-17T11:08:48+00:00
339784,FR-0449,small_airport,"Base ULM de St Benoit sur Loire",47.79157,2.33751,367,EU,France,FR,"Centre-Val de Loire",FR-CVL,CVL,,0,,,LF4552,http://www.ulm-club-du-val-de-loire.fr/,,,50,2021-01-18T05:11:54+00:00
339786,FR-0451,small_airport,"Aerodrome de Fougères-sur-Bièvre",47.45769,1.36382,335,EU,France,FR,"Centre-Val de Loire",FR-CVL,CVL,,0,,,LF4128,,,,50,2021-01-18T08:42:41+00:00
345349,FR-0479,small_airport,"Base ULM de Joigny",47.16895,2.75894,,EU,France,FR,"Centre-Val de Loire",FR-CVL,CVL,,0,,,,,,,50,2021-06-10T04:31:12+00:00
28779,LFAP,small_airport,"Rethel Airfield",49.481899,4.36472,410,EU,France,FR,"Grand Est",FR-GES,GES,,0,LFAP,,,,,,50,2018-04-02T01:06:03+00:00
28843,LFFJ,small_airport,"Joinville Mussey Airfield",48.386101,5.145,1024,EU,France,FR,"Grand Est",FR-GES,GES,,0,LFFJ,,,,,,50,2019-02-18T03:17:57+00:00
28849,LFFR,small_airport,"Bar Sur Seine Airfield",48.066898,4.41361,938,EU,France,FR,"Grand Est",FR-GES,GES,,0,LFFR,,,,,,50,2019-02-18T03:17:03+00:00
28850,LFFT,small_airport,"Neufchâteau Airfield",48.362499,5.72139,1224,EU,France,FR,"Grand Est",FR-GES,GES,,0,LFFT,,,,,,50,2019-02-18T05:47:26+00:00
28869,LFGR,small_airport,"Doncourt Les Conflans Airfield",49.152802,5.93278,804,EU,France,FR,"Grand Est",FR-GES,GES,,0,LFGR,,,,,,50,2016-11-15T03:16:07+00:00
28870,LFGS,small_airport,"Longuyon Villette Airfield",49.484402,5.57278,1148,EU,France,FR,"Grand Est",FR-GES,GES,,0,LFGS,,,,,,50,2016-11-15T03:15:41+00:00
28988,LFQR,closed,"Romilly Sur Seine Airfield",48.500599,3.76333,267,EU,France,FR,"Grand Est",FR-GES,GES,,0,,,,,,"LFQR, LFQR",50,2020-04-29T00:14:47+00:00
28991,LFQX,small_airport,"Aérodrome de Juvancourt",48.115002,4.82083,1145,EU,France,FR,"Grand Est",FR-GES,GES,,0,LFQX,,,,,,50,2020-04-30T06:31:56+00:00
28993,LFQZ,small_airport,"Dieuze Guéblange Airfield",48.775299,6.71528,722,EU,France,FR,"Grand Est",FR-GES,GES,,0,LFQZ,,,,,,50,2020-04-27T10:22:27+00:00
29013,LFXC,closed,"Vittel (Auzainvilliers) Airfield",48.2286,5.84302,,EU,France,FR,"Grand Est",FR-GES,GES,,0,,,,,,"LFXC, LFXC",50,2016-11-16T05:22:55+00:00
29023,LFYK,small_airport,"Marville Montmédy Airfield",49.459202,5.4025,909,EU,France,FR,"Grand Est",FR-GES,GES,,0,,,LF5526,,,,50,2020-06-03T08:39:31+00:00
29025,LFYM,closed,"Marigny Le Grand Air Base",48.66,3.83389,329,EU,France,FR,"Grand Est",FR-GES,GES,,0,,,,,,"LFYM, LFYM",50,2018-04-02T00:38:50+00:00
29777,LFSY,small_airport,"Cessey Baigneux les Juifs Airfield",47.609722,4.6175,1175,EU,France,FR,"Grand Est",FR-GES,GES,,0,LFSY,,,,,,50,2018-04-02T01:19:17+00:00
315461,FR-0323,small_airport,"Mont sur Meurthe",48.543823,6.441912,,EU,France,FR,"Grand Est",FR-GES,GES,,0,,,LF5421,,,,50,2020-06-04T06:41:27+00:00
316187,FR-0340,small_airport,"Ramonchamp ULM",47.895556,6.755278,1893,EU,France,FR,"Grand Est",FR-GES,GES,,0,,,LF8851,,,,50,2016-10-23T04:36:58+00:00
340067,FR-0456,small_airport,"Siersthal Airstrip",49.05275,7.36527,,EU,France,FR,"Grand Est",FR-GES,GES,,0,,,,,,,50,2021-01-25T04:33:15+00:00
28780,LFAR,small_airport,"Montdidier Airfield",49.6731,2.56917,358,EU,France,FR,Hauts-de-France,FR-HDF,HDF,,0,LFAR,,,,,,50,2016-11-24T02:59:13+00:00
28967,LFOW,small_airport,"Aérodrome de Saint-Quentin - Roupy",49.816898,3.20667,325,EU,France,FR,Hauts-de-France,FR-HDF,HDF,,0,LFOW,,,,,,50,2020-04-30T09:18:33+00:00
28985,LFQL,small_airport,"Lens Benifontaine Airfield",50.4664,2.81972,167,EU,France,FR,Hauts-de-France,FR-HDF,HDF,,0,LFQL,,,,,,50,2020-04-29T10:22:21+00:00
28989,LFQS,small_airport,"Vitry en Artois Airfield",50.338299,2.99333,174,EU,France,FR,Hauts-de-France,FR-HDF,HDF,,0,LFQS,,,,,,50,2016-11-16T05:24:08+00:00
29021,LFYG,small_airport,"Cambrai Niergnies Airfield",50.142502,3.265,312,EU,France,FR,Hauts-de-France,FR-HDF,HDF,,0,LFYG,,,,,,50,2018-04-02T00:48:50+00:00
315606,FR-0324,small_airport,"Verchocq Airpark",50.541124,2.033945,,EU,France,FR,Hauts-de-France,FR-HDF,HDF,,0,,,LF6252,http://www.aero-delahaye.com,,"Aero Delahaye,",50,2016-10-22T17:28:53+00:00
315955,FR-0328,small_airport,"ULM La Flamengrie",50.00025,3.94482,,EU,France,FR,Hauts-de-France,FR-HDF,HDF,,0,,,LF0258,,,,50,2020-06-05T05:17:03+00:00
339788,FR-0453,small_airport,"Base ULM de Flavacourt",49.35105,1.81304,456,EU,France,FR,Hauts-de-France,FR-HDF,HDF,,0,,,LF6026,http://www.gite-de-la-loge.com,,,50,2021-01-18T05:42:44+00:00
28837,LFFB,small_airport,"Buno Bonnevaux Airfield",48.351101,2.42556,420,EU,France,FR,Île-de-France,FR-IDF,IDF,,0,LFFB,,,,,,50,2016-11-14T07:04:14+00:00
28841,LFFG,small_airport,"La Ferté Gaucher Airfield",48.755798,3.27667,538,EU,France,FR,Île-de-France,FR-IDF,IDF,,0,LFFG,,,,,,50,2019-02-18T05:46:09+00:00
28973,LFPF,small_airport,"Aérodrome de Beynes - Thiverval",48.843601,1.90889,371,EU,France,FR,Île-de-France,FR-IDF,IDF,,0,LFPF,,,,,,50,2021-06-13T07:21:46+00:00
28980,LFPY,closed,"Brétigny sur Orge Air Base",48.5961,2.33222,270,EU,France,FR,Île-de-France,FR-IDF,IDF,,0,,,,,,"LFPY, LFPY",50,2021-06-13T06:59:28+00:00
356278,FR-0503,small_airport,MOUY,49.3146,2.30019,371,EU,France,FR,Île-de-France,FR-IDF,IDF,,0,,,LF6051,,,,50,2022-08-20T14:26:25+00:00
429762,FR-0504,small_airport,"Base ULM de La Trétoire",48.86822,3.24902,,EU,France,FR,Île-de-France,FR-IDF,IDF,,0,,,,,,,50,2022-09-10T08:14:28+00:00
28791,LFCE,small_airport,"Aérodrome de Guéret Saint-Laurent",46.17667,1.95444,1207,EU,France,FR,Nouvelle-Aquitaine,FR-NAQ,NAQ,,0,LFCE,,,http://aeroclub-gueret-saint-laurent.fr/,,,50,2020-09-12T08:29:32+00:00
28810,LFDR,small_airport,"La Réole Floudes Airport",44.5681,-0.056111,43,EU,France,FR,Nouvelle-Aquitaine,FR-NAQ,NAQ,,0,LFDR,,,,,,50,2021-06-13T07:04:15+00:00
28813,LFDU,small_airport,"Lesparre St Laurent Medoc Airfield",45.1978,-0.882222,105,EU,France,FR,Nouvelle-Aquitaine,FR-NAQ,NAQ,,0,LFDU,,,,,,50,2021-06-13T07:05:03+00:00
28815,LFDW,small_airport,"Chauvigny Airfield",46.583599,0.6425,440,EU,France,FR,Nouvelle-Aquitaine,FR-NAQ,NAQ,,0,LFDW,,,,,,50,2016-11-11T04:28:40+00:00
28899,LFIL,small_airport,"Rion Des Landes Airfield",43.915798,-0.949167,256,EU,France,FR,Nouvelle-Aquitaine,FR-NAQ,NAQ,,0,LFIL,,,,,,50,2021-06-13T07:09:33+00:00
28904,LFIV,small_airport,"Aérodrome de Vendays-Montalivet",45.3806,-1.11583,16,EU,France,FR,Nouvelle-Aquitaine,FR-NAQ,NAQ,,0,LFIV,,,,,,50,2021-04-27T14:22:43+00:00
28905,LFIX,small_airport,"Itxassou Airfield",43.337502,-1.42222,607,EU,France,FR,Nouvelle-Aquitaine,FR-NAQ,NAQ,,0,LFIX,,,,,,50,2021-06-13T07:08:54+00:00
315736,FR-0326,small_airport,"Base ULM de Saint Maurice",45.96559,0.739478,755,EU,France,FR,Nouvelle-Aquitaine,FR-NAQ,NAQ,,0,,,LF1627,,,,50,2020-06-03T10:06:59+00:00
315958,FR-0331,small_airport,"Base ULM de Javerlhac",45.553817,0.5585,,EU,France,FR,Nouvelle-Aquitaine,FR-NAQ,NAQ,,0,,,LF2428,,,,50,2020-06-04T06:36:59+00:00
339748,FR-0440,small_airport,"Base ULM de Saint Secondin",46.34685,0.51751,443,EU,France,FR,Nouvelle-Aquitaine,FR-NAQ,NAQ,,0,,,LF8626,https://www.guynemairulm.com,,,50,2021-01-17T10:49:57+00:00
342658,FR-0477,small_airport,"Base ULM Vol d'oiseau",45.690818,-1.005464,,EU,France,FR,Nouvelle-Aquitaine,FR-NAQ,NAQ,,0,,,,,,,50,2021-04-05T04:30:30+00:00
506406,FR-0158,small_airport,"Bournizeau Airfield",46.88053,-0.28448,430,EU,France,FR,Nouvelle-Aquitaine,FR-NAQ,NAQ,,0,,,,https://www.bournizeaux.com/pilot-info/,,"PPR, Private",50,2023-02-05T05:47:16+00:00
28774,LFAJ,small_airport,"Argentan Airfield",48.710602,0.003889,581,EU,France,FR,Normandy,FR-NOR,NOR,,0,LFAJ,,,,,,50,2018-04-02T01:04:22+00:00
28778,LFAN,closed,"Aérodrome de  Condé sur Noireau",48.891701,-0.501944,833,EU,France,FR,Normandy,FR-NOR,NOR,,0,,,,,,"LFAN, LFAN",50,2020-09-12T07:23:59+00:00
28781,LFAS,small_airport,"Aérodrome de Falaise-Mont d'Eraines",48.9272,-0.144722,512,EU,France,FR,Normandy,FR-NOR,NOR,,0,LFAS,,,,,,50,2020-05-12T14:16:53+00:00
28855,LFFY,small_airport,"Étrépagny Airfield",49.305273,1.637907,308,EU,France,FR,Normandy,FR-NOR,NOR,,0,LFFY,,,http://aeroclubduvexin.com/,,,50,2021-04-01T10:01:18+00:00
28960,LFOG,small_airport,"Aérodrome de Flers Saint-Paul",48.752499,-0.589444,656,EU,France,FR,Normandy,FR-NOR,NOR,,0,LFOG,,,,,,50,2020-05-02T06:06:06+00:00
339741,FR-0435,small_airport,"Aérodrome privé de Cesseville Ferme des Moulins",49.17793,0.9953,485,EU,France,FR,Normandy,FR-NOR,NOR,,0,,,LF2752,http://fermedesmoulins.pagesperso-orange.fr,,,50,2021-01-18T07:21:55+00:00
339742,FR-0436,small_airport,"Val de Reuil Ultralightport",49.282168,1.23167,33,EU,France,FR,Normandy,FR-NOR,NOR,,0,,,LF2753,http://www.calhn.free.fr,,"Base ULM de Val de Reuil",50,2022-12-07T12:02:29+00:00
339743,FR-0437,small_airport,"Base ULM Les Noyers",49.25944,1.65973,328,EU,France,FR,Normandy,FR-NOR,NOR,,0,,,LF2751,,,,50,2021-01-17T10:30:49+00:00
28792,LFCF,small_airport,"Aérodrome de Figeac - Livernon",44.673302,1.78917,1086,EU,France,FR,Occitanie,FR-OCC,OCC,,0,LFCF,,,,,,50,2020-09-12T08:27:48+00:00
28794,LFCN,small_airport,"Nogaro Airfield",43.769699,-0.032778,304,EU,France,FR,Occitanie,FR-OCC,OCC,,0,LFCN,,,,,,50,2020-08-16T03:29:14+00:00
28809,LFDQ,small_airport,"Castelnau Magnoac Airport",43.2794,0.521667,984,EU,France,FR,Occitanie,FR-OCC,OCC,,0,LFDQ,,,,,,50,2021-06-13T07:03:59+00:00
28896,LFID,small_airport,"Aérodrome de Condom - Valence-sur-Baïse",43.910301,0.387222,444,EU,France,FR,Occitanie,FR-OCC,OCC,,0,LFID,,,,,,50,2021-04-27T14:30:37+00:00
28902,LFIR,small_airport,"Revel Montgey Airfield",43.4814,1.98,643,EU,France,FR,Occitanie,FR-OCC,OCC,,0,LFIR,,,,,,50,2021-06-13T07:10:03+00:00
28903,LFIT,small_airport,"Aérodrome de Toulouse Bourg-Saint-Bernard",43.612202,1.72528,525,EU,France,FR,Occitanie,FR-OCC,OCC,,0,LFIT,,,,,,50,2021-04-27T14:33:33+00:00
28911,LFJH,small_airport,"Aérodrome de Cazères - Palaminy",43.202202,1.05111,811,EU,France,FR,Occitanie,FR-OCC,OCC,,0,LFJH,,,,,,50,2021-04-27T14:16:42+00:00
28945,LFNL,small_airport,"Aérodrome de Saint-Martin-de-Londres",43.8008,3.7825,597,EU,France,FR,Occitanie,FR-OCC,OCC,,0,LFNL,,,,,,50,2020-05-03T05:40:57+00:00
28947,LFNO,small_airport,"Florac Ste Enimie Airfield",44.2864,3.46667,3054,EU,France,FR,Occitanie,FR-OCC,OCC,,0,LFNO,,,,,,50,2019-02-18T08:08:27+00:00
28948,LFNP,closed,"Pézenas Nizas Airfield",43.505798,3.41361,322,EU,France,FR,Occitanie,FR-OCC,OCC,,0,,,,,https://fr.wikipedia.org/wiki/A%C3%A9rodrome_de_P%C3%A9zenas_-_Nizas,"LFNP, LFNP",50,2019-02-18T08:07:54+00:00
28955,LFNW,small_airport,"Puivert Airfield",42.9114,2.05611,1608,EU,France,FR,Occitanie,FR-OCC,OCC,,0,LFNW,,,,,,50,2019-02-18T08:04:02+00:00
28956,LFNX,small_airport,"Bédarieux La Tour Airfield",43.6408,3.14556,1237,EU,France,FR,Occitanie,FR-OCC,OCC,,0,LFNX,,,,,,50,2019-02-18T08:03:33+00:00
316146,FR-0337,small_airport,"Cabrerets ULM",44.51415,1.592503,1177,EU,France,FR,Occitanie,FR-OCC,OCC,,0,,,LF4629,,,,50,2016-10-22T17:27:25+00:00
326702,FR-0371,small_airport,"Fromissard ULM",44.003856,1.229357,,EU,France,FR,Occitanie,FR-OCC,OCC,,0,,,,,,,50,2018-03-17T09:12:19+00:00
330775,FR-0380,small_airport,"Base ULM des Bories",44.5113533,3.2709963,,EU,France,FR,Occitanie,FR-OCC,OCC,,0,,,LF4864,,,,50,2019-03-17T03:34:21+00:00
333901,FR-0408,small_airport,"Torre-Blanc Llauro",42.550278,2.731389,1510,EU,France,FR,Occitanie,FR-OCC,OCC,,0,,,LF6658,http://www.aero-hesbaye.be/vac/ULM/LF6658.pdf,,,50,2020-04-18T07:49:07+00:00
333966,FR-0416,small_airport,"Aérodrome de Sabonnères",43.455707,1.07548,1050,EU,France,FR,Occitanie,FR-OCC,OCC,,0,,,LF3126,,,,50,2020-04-24T13:34:57+00:00
336353,FR-0420,small_airport,"Altisurface de Valberg",44.106039,6.940602,2240,EU,France,FR,Occitanie,FR-OCC,OCC,,0,,,LF0654,,,,50,2021-04-23T10:33:24+00:00
28951,LFNS,small_airport,"Aérodrome de Sistéron-Vaumeilh",44.286331,5.928993,1772,EU,France,FR,Provence-Alpes-Côte-d'Azur,FR-PAC,PAC,,0,LFNS,,,http://www.aerodrome-sisteron.com,,,50,2021-06-13T07:13:36+00:00
28958,LFNZ,small_airport,"Le Mazet De Romanin Airfield",43.768902,4.89361,387,EU,France,FR,Provence-Alpes-Côte-d'Azur,FR-PAC,PAC,,0,LFNZ,,,,,,50,2019-02-18T06:12:30+00:00
29006,LFTM,small_airport,"Serres - La Bâtie-Montsaléon Airfield",44.458302,5.72833,2345,EU,France,FR,Provence-Alpes-Côte-d'Azur,FR-PAC,PAC,,0,LFTM,,,,,,50,2021-06-13T07:17:06+00:00
321891,FR-0348,small_airport,"La Motte du Caire Glider Field",44.32286,6.03128556,2132,EU,France,FR,Provence-Alpes-Côte-d'Azur,FR-PAC,PAC,,0,,,LF0431,,,,50,2017-01-20T03:11:03+00:00
322154,FR-0356,small_airport,"Seyne les Alpes Glider Field",44.341944,6.372778,3937,EU,France,FR,Provence-Alpes-Côte-d'Azur,FR-PAC,PAC,,0,,,LF0430,,,,50,2017-06-07T15:10:11+00:00
28844,LFFK,small_airport,"Fontenay Le Comte Airfield",46.441399,-0.792778,85,EU,France,FR,Pays-de-la-Loire,FR-PDL,PDL,,0,LFFK,,,,,,50,2019-02-18T03:15:58+00:00
28853,LFFW,small_airport,"Montaigu St Georges Airfield",46.933102,-1.32556,184,EU,France,FR,Pays-de-la-Loire,FR-PDL,PDL,,0,LFFW,,,,,,50,2019-02-18T02:34:33+00:00
315432,LFSS,small_airport,"Saint Sulpice des Landes",47.7916667,-1.643611,,EU,France,FR,Pays-de-la-Loire,FR-PDL,PDL,,0,LFSS,,,,,,50,2015-09-15T03:15:14+00:00
316148,FR-0339,small_airport,"Saint Sigismond ULM",47.439444,-0.935833,,EU,France,FR,Pays-de-la-Loire,FR-PDL,PDL,,0,,,LF4923,,,,50,2016-10-21T07:33:54+00:00
331649,FR-0183,small_airport,"Aérodrome de Monhoudou",48.2758993,0.3257194,,EU,France,FR,Pays-de-la-Loire,FR-PDL,PDL,,0,,,,,,,50,2019-07-13T07:03:11+00:00
339749,FR-0441,small_airport,"Base ULM de Frossay",47.23817,-1.87807,10,EU,France,FR,Pays-de-la-Loire,FR-PDL,PDL,,0,,,LF4451,http://www.randkar.fr,,,50,2021-01-17T10:59:37+00:00
342519,FR-0474,small_airport,"Aérodrome de l'Emonière",47.05997,-1.35325,,EU,France,FR,Pays-de-la-Loire,FR-PDL,PDL,,0,,,,,,,50,2021-03-31T05:44:58+00:00
343347,FR-0478,small_airport,"Aérodrome de Cossé le Vivien",47.97263,-0.91864,,EU,France,FR,Pays-de-la-Loire,FR-PDL,PDL,,0,,,,,,,50,2021-04-22T05:05:54+00:00
346267,FR-0480,small_airport,"Cizay-la-Madeleine UL",47.17962,-0.15915,,EU,France,FR,Pays-de-la-Loire,FR-PDL,PDL,,0,,,,,,,50,2021-07-08T07:56:06+00:00
346433,FR-0481,small_airport,"Piste privée de La Cornélie",46.84447,-1.77088,,EU,France,FR,Pays-de-la-Loire,FR-PDL,PDL,,0,,,,,,,50,2021-07-15T01:45:58+00:00
349121,FR-0489,small_airport,"Chaillé-les-Marais Private Airstrip",46.40527,-1.03049,,EU,France,FR,Pays-de-la-Loire,FR-PDL,PDL,,0,,,,,,,50,2021-10-25T05:15:46+00:00
347604,FR-0485,small_airport,"Saint Martin de Castillon",43.85309,5.545446,,EU,France,FR,(unassigned),FR-U-A,U-A,,0,,,LF8421,,,,50,2021-09-14T06:35:38+00:00
342323,FR-0470,small_airport,"Aérodrome d'Albé - Val de Villé",48.349158,7.330171,1247,EU,France,FR,"Grand Est",FR-GES,GES,Albé,0,,,LF6721,,,,50,2021-03-24T14:07:55+00:00
43588,FR-0246,small_airport,"Altisurface d'Aleu",42.900002,1.275,3445,EU,France,FR,Occitanie,FR-OCC,OCC,Aleu,0,,,LF0921,,,,50,2017-02-13T07:50:38+00:00
28821,LFEF,small_airport,"Amboise Dierre Airport",47.3414,0.9425,180,EU,France,FR,"Centre-Val de Loire",FR-CVL,CVL,Amboise,0,LFEF,,,http://www.ailestourangelles.fr/en/,,,50,2018-05-21T15:16:42+00:00
43645,FR-0303,small_airport,"Altisurface des Quatre Veziaux - La Hourquette d'Ancizan",42.898532,0.297144,5643,EU,France,FR,Occitanie,FR-OCC,OCC,Ancizan,0,,,LF6526,http://www.aero-hesbaye.be/vac/ULM/LF6526.pdf,,,50,2020-04-19T06:42:30+00:00
28994,LFRA,closed,"Aérodrome d'Angers Avrillé",47.499199,-0.572778,187,EU,France,FR,Pays-de-la-Loire,FR-PDL,PDL,Angers,0,,,,,,"LFRA, LFRA",50,2020-05-01T12:32:24+00:00
28915,LFJT,small_airport,"Tours Le Louroux Airport",47.150001525878906,0.7127779722213745,413,EU,France,FR,"Centre-Val de Loire",FR-CVL,CVL,Angers,0,LFJT,,,,,,50,2008-07-31T23:15:39+00:00
43360,FR-0020,small_airport,"Escary Aramits",43.121208,-0.742491,1076,EU,France,FR,Nouvelle-Aquitaine,FR-NAQ,NAQ,Aramits,0,,,LF6428,,,,50,2020-06-04T07:50:46+00:00
43589,FR-0247,small_airport,"Artigues Airstrip",43.076942,0.001944,2428,EU,France,FR,Occitanie,FR-OCC,OCC,Artigues,0,,,LF6527,,,,50,2016-08-25T16:30:39+00:00
28944,LFNJ,small_airport,"Aérodrome d'Aspres-sur-Buëch",44.518902,5.7375,2726,EU,France,FR,Provence-Alpes-Côte-d'Azur,FR-PAC,PAC,"Aspres sur Buëch",0,LFNJ,,,,,,50,2020-05-03T05:37:49+00:00
4099,LFEH,small_airport,"Aubigny-sur-Nère Airport",47.480556,2.394167,630,EU,France,FR,"Centre-Val de Loire",FR-CVL,CVL,Aubigny-sur-Nère,0,LFEH,,,,,,50,2016-07-17T09:13:07+00:00
43631,FR-0289,small_airport,"La Serre D'aulon Altiport",42.836109,0.272222,6562,EU,France,FR,Occitanie,FR-OCC,OCC,Aulon,0,,,LF6525,,,,50,2019-01-21T06:52:43+00:00
350584,FR-0490,small_airport,"Base ULM Avaux - Les Bourdons",49.480697,4.074769,374,EU,France,FR,"Grand Est",FR-GES,GES,Avaux,0,,,LF0851,,,,50,2021-12-15T13:40:07+00:00
354021,FR-0496,small_airport,"Base Paramoteurs d' Avernes",49.10568,1.87907,456,EU,France,FR,(unassigned),FR-U-A,U-A,Avernes,0,,,LF9551,,,,50,2022-04-14T13:03:19+00:00
4053,LFAO,small_airport,"Aérodrome de Bagnoles - Couterne",48.545799,-0.387444,718,EU,France,FR,Normandy,FR-NOR,NOR,Bagnoles-de-l'Orne,0,LFAO,,,,,,50,2020-05-12T14:23:51+00:00
333971,FR-0419,small_airport,"Base ULM Le Tucoulet",43.201258,0.547353,1627,EU,France,FR,Occitanie,FR-OCC,OCC,Balesta,0,,,LF3156,,,,50,2020-04-24T21:49:08+00:00
348515,FR-0487,small_airport,"Altisurface de Banon",44.072222,5.639166,3723,EU,France,FR,Provence-Alpes-Côte-d'Azur,FR-PAC,PAC,Banon,0,,,LF0456,http://www.cabane-haute-provence.com,,,50,2021-10-09T04:15:40+00:00
328712,LFYV,small_airport,"Yvetot Lucien Camu Airport",49.638316,0.728467,467,EU,France,FR,Normandy,FR-NOR,NOR,Baons-le-Comte,0,LFYV,,,http://www.aeroclub-yvetot.fr/,,,50,2022-12-07T11:59:47+00:00
43595,FR-0253,small_airport,"Altisurface de Castillon De La Laquette",42.895557,0.100556,5413,EU,France,FR,Occitanie,FR-OCC,OCC,Barèges,0,,,LF6528,https://basulm.ffplum.fr/PDF/LF6528.pdf,,,50,2020-04-19T06:43:25+00:00
333902,FR-0409,small_airport,"Super Bareges - Plateau de Monhaillat",42.911111,0.125556,6100,EU,France,FR,Occitanie,FR-OCC,OCC,Bareges,0,,,LF6555,http://www.aero-hesbaye.be/vac/ULM/LF6555.pdf,,,50,2020-04-18T08:06:55+00:00
342327,FR-0473,small_airport,"Base ULM de Batzendorf",48.803016,7.726527,560,EU,France,FR,"Grand Est",FR-GES,GES,Batzendorf,0,,,LF6751,,,,50,2021-03-24T14:53:20+00:00
337340,FR-0424,small_airport,"Bazas Cazats",44.462263,-0.187844,300,EU,France,FR,(unassigned),FR-U-A,U-A,Bazas,0,,,LF3321,https://basulm.ffplum.fr/bases/liste-des-terrains/details/59/9187.html,,"bazas,cazats,lf3321",50,2020-11-18T02:06:26+00:00
30786,LFSQ,closed,"Aéroparc de Belfort-Fontaine",47.655602,7.01083,1208,EU,France,FR,Bourgogne-Franche-Comté,FR-BFC,BFC,Belfort,0,,,,,,"LFSQ, LFSQ, BOR",50,2020-09-12T07:34:03+00:00
333918,FR-0412,small_airport,"Base ULM du Sarrat",43.208593,1.708594,846,EU,France,FR,Occitanie,FR-OCC,OCC,Belpech,0,,,LF0951,,,,50,2020-04-19T10:44:24+00:00
28777,LFAM,small_airport,"Berck sur Mer Airfield",50.4231,1.59194,30,EU,France,FR,Hauts-de-France,FR-HDF,HDF,"Berck sur Mer",0,LFAM,,,http://www.aeroberck.com/,,,50,2023-05-18T09:46:22+00:00
28950,LFNR,small_airport,"Berre-la-Fare Airfield",43.536659,5.177444,108,EU,France,FR,Provence-Alpes-Côte-d'Azur,FR-PAC,PAC,Berre-l'Étang,0,LFNR,,,,,,50,2021-03-09T09:06:50+00:00
333925,FR-0415,small_airport,"Aerodrome de Bois de la Pierre",43.342596,1.14202,840,EU,France,FR,Occitanie,FR-OCC,OCC,Bois-de-la-Pierre,0,,,LF3128,,,,50,2020-04-19T16:39:07+00:00
28987,LFQO,small_airport,"Lille/Marcq-en-Baroeul Airfield",50.687199,3.07556,69,EU,France,FR,Hauts-de-France,FR-HDF,HDF,Bondues,0,LFQO,,,,,,50,2022-09-20T10:45:40+00:00
28807,LFDO,closed,"Bordeaux Souge Air Base",44.851093,-0.805493,135,EU,France,FR,Nouvelle-Aquitaine,FR-NAQ,NAQ,Bordeaux,0,,,,,,"LFDO, LFDO",50,2016-11-11T04:48:08+00:00
43623,FR-0281,small_airport,"Altisurface d'Hautacam",42.99387,-0.012569,5512,EU,France,FR,Occitanie,FR-OCC,OCC,Bordes,0,,,LF6529,http://www.aero-hesbaye.be/vac/ULM/LF6529.pdf,,,50,2020-04-30T11:22:38+00:00
28890,LFHT,small_airport,"Ambert Le Poyet Airport",45.51689910888672,3.7463901042938232,1847,EU,France,FR,Auvergne-Rhône-Alpes,FR-ARA,ARA,Bourg,0,LFHT,,,,,,50,2008-07-31T23:15:00+00:00
4103,LFFN,small_airport,"Aérodrome de Brienne-le-Château",48.429798,4.48222,381,EU,France,FR,"Grand Est",FR-GES,GES,Brienne-le-Château,0,LFFN,,,,,,50,2021-08-03T04:28:17+00:00
28889,LFHR,small_airport,"Brioude Beaumont Airport",45.3250007629,3.35916996002,1483,EU,France,FR,Auvergne-Rhône-Alpes,FR-ARA,ARA,Brioude,0,LFHR,,,,,,50,2015-05-03T15:59:48+00:00
43601,FR-0259,small_airport,"Altiport du Col de Cenise",46.020832,6.45,5656,EU,France,FR,Auvergne-Rhône-Alpes,FR-ARA,ARA,Brison,0,,,LF7421,,,,50,2019-04-28T10:44:25+00:00
29022,LFYH,closed,"Broyes-lès-Pesmes Air Base",47.332932,5.513494,682,EU,France,FR,Bourgogne-Franche-Comté,FR-BFC,BFC,Broye-Aubigney-Montseugny,0,,,,,,"LFYH, LFYH",50,2016-09-12T12:01:05+00:00
340045,FR-0454,small_airport,"Base ULM de Arbis",44.68066,-0.25683,200,EU,France,FR,Nouvelle-Aquitaine,FR-NAQ,NAQ,Cadillac,0,,,LF3352,http://www.ulm-aquitaine.com/,,,50,2021-01-24T09:23:25+00:00
340046,FR-0455,small_airport,"Base ULM de Saint Pierre de Bat",44.66716,-0.21962,158,EU,France,FR,Nouvelle-Aquitaine,FR-NAQ,NAQ,Cadillac,0,,,LF3322,,,,50,2021-01-24T09:28:03+00:00
316147,FR-0338,small_airport,"Carlucet Biguès ULM",44.744167,1.618333,1045,EU,France,FR,Occitanie,FR-OCC,OCC,Carlucet,0,,,LF4630,,,,50,2023-03-11T13:46:51+00:00
4117,LFIG,small_airport,"Cassagnes-Bégonhès Airport",44.177799224853516,2.515000104904175,2024,EU,France,FR,Occitanie,FR-OCC,OCC,Cassagnes-Bégonhès,0,LFIG,,,,,,50,2008-06-13T14:30:04+00:00
315458,FR-0322,small_airport,"Col de Lèques",43.86661,6.463966,,EU,France,FR,Provence-Alpes-Côte-d'Azur,FR-PAC,PAC,Castellane,0,,,,,,,50,2016-02-11T08:58:58+00:00
43594,FR-0252,small_airport,"Altisurface de Cap De Pouy",42.784721,0.545,5905,EU,France,FR,Occitanie,FR-OCC,OCC,Castillon-de-Larboust,0,,,LF3132,https://map.aerobreak.com/data/ficheffplum/LF3132.pdf,,,50,2020-04-19T08:29:24+00:00
